property_id,url,source,scrape_date,posting_date,html_path,property_type,category,transaction_type,new_construction,price,price_per_sqm,vat,cadastral_income,street,house_number,postal_code,locality,province,region,latitude,longitude,bedrooms,bedroom_surfaces,livable_surface,living_room_surface,kitchen_surface,kitchen_equipment,bathrooms,showers,toilets,build_year,currently_leased,furnished,heating_type,glazing_type,heat_pump,solar_panels,air_conditioning,primary_energy_consumption,epc,electrical_certificate,facades,facade_orientation,garden,garden_surface,garden_orientation,terrace,terrace_surface,balcony,garage,garages,indoor_parking,outdoor_parking,cellar,swimming_pool,elevator,running_water,flooding_area_type,demarcated_flooding_area,flood_g_score,flood_p_score,availability,building_state,land_surface,ground_depth,terrain_width,number_of_floors,apartment_floor,maintenance_cost,co_ownership_charges,nearest_city,nearest_city_distance_km
rbv40102,https://immovlan.be/en/detail/apartment/for-rent/1000/brussels/rbv40102,ImmoVlan,2026-06-15,2026-03-05,/Volumes/nstephane/Dev/AI_Data_Science_training/immo-eliza-scraping/data/html/rbv40102.html,flat,apartment,for-rent,0,955,13.26,,,Avenue Louise,,1000,Brussels,Brussels,Brussels,51.2037695,4.4112637,1,,72,,,,1,1,1,,0,1,,Double glass,,,0,169,D,,,,0,,,0,,0,,,,,,,1,,,,,,,,,,,,4,,,Antwerp,1.84
rbv42400,https://immovlan.be/en/detail/apartment/for-rent/1000/brussels/rbv42400,ImmoVlan,2026-06-15,2026-03-09,/Volumes/nstephane/Dev/AI_Data_Science_training/immo-eliza-scraping/data/html/rbv42400.html,flat,apartment,for-rent,0,770,14.81,,,Grand-Place,,1000,Brussels,Brussels,Brussels,51.2037695,4.4112637,1,,52,,,,1,1,1,,0,1,,Double glass,,,0,173,D,,,,0,,,0,,0,,,,,,,1,,,,,,,,,,,,3,,,Antwerp,1.84
rbv60224,https://immovlan.be/en/detail/apartment/for-rent/1000/brussels/rbv60224,ImmoVlan,2026-06-15,2026-03-31,/Volumes/nstephane/Dev/AI_Data_Science_training/immo-eliza-scraping/data/html/rbv60224.html,flat,apartment,for-rent,0,1490,48.06,,,Boulevard du Régent,,1000,Brussels,Brussels,Brussels,50.8390923,4.362643,,,31,,,,,,,,0,,,,,,,,,,,,0,,,1,,1,,,,,,,,,,,,,,,,,,,4,,,Brussels,1.23
rbv60216,https://immovlan.be/en/detail/apartment/for-rent/1000/brussels/rbv60216,ImmoVlan,2026-06-15,2026-03-31,/Volumes/nstephane/Dev/AI_Data_Science_training/immo-eliza-scraping/data/html/rbv60216.html,flat,apartment,for-rent,0,1600,55.17,,,Quai à la Houille,,1000,Brussels,Brussels,Brussels,50.8541333,4.3468775,,,29,,,,,,,,0,,,,,,,,,,,,0,,,0,,0,,,,,,,,,,,,,,,,,,,2,,,Brussels,0.85
rbv60222,https://immovlan.be/en/detail/apartment/for-rent/1000/brussels/rbv60222,ImmoVlan,2026-06-15,2026-03-31,/Volumes/nstephane/Dev/AI_Data_Science_training/immo-eliza-scraping/data/html/rbv60222.html,flat,apartment,for-rent,0,2100,36.21,,,Quai à la Houille,,1000,Brussels,Brussels,Brussels,50.8541333,4.3468775,,,58,,,,,,,,0,,,,,,,,,,,,0,,,0,,0,,,,,,,,,,,,,,,,,,,6,,,Brussels,0.85
rbv60205,https://immovlan.be/en/detail/apartment/for-rent/1000/brussels/rbv60205,ImmoVlan,2026-06-15,2026-03-31,/Volumes/nstephane/Dev/AI_Data_Science_training/immo-eliza-scraping/data/html/rbv60205.html,flat,apartment,for-rent,0,1500,51.72,,,Quai à la Houille,,1000,Brussels,Brussels,Brussels,50.8541333,4.3468775,,,29,,,,,,,,0,,,,,,,,,,,,0,,,0,,0,,,,,,,,,,,,,,,,,,,3,,,Brussels,0.85
rbv60206,https://immovlan.be/en/detail/apartment/for-rent/1000/brussels/rbv60206,ImmoVlan,2026-06-15,2026-03-31,/Volumes/nstephane/Dev/AI_Data_Science_training/immo-eliza-scraping/data/html/rbv60206.html,flat,apartment,for-rent,0,1600,55.17,,,Quai à la Houille,,1000,Brussels,Brussels,Brussels,50.8541333,4.3468775,,,29,,,,,,,,0,,,,,,,,,,,,0,,,0,,0,,,,,,,,,,,,,,,,,,,2,,,Brussels,0.85
rbv67654,https://immovlan.be/en/detail/apartment/for-rent/1000/brussels/rbv67654,ImmoVlan,2026-06-15,2026-04-11,/Volumes/nstephane/Dev/AI_Data_Science_training/immo-eliza-scraping/data/html/rbv67654.html,flat,apartment,for-rent,0,2550,15.94,,,Place des Barricades,11,1000,Brussels,Brussels,Brussels,50.85093,4.367307,3,,160,40,,,2,,2,2014,0,1,Gas,,,,,112,C,1,2,,0,,,1,8,,1,,,,,,1,,,,,,Immediately,Normal,,,,,2,,,Brussels,1.31
rbv72611,https://immovlan.be/en/detail/apartment/for-rent/1000/brussels/rbv72611,ImmoVlan,2026-06-15,2026-04-19,/Volumes/nstephane/Dev/AI_Data_Science_training/immo-eliza-scraping/data/html/rbv72611.html,flat,apartment,for-rent,0,1600,47.06,,,Quai à la Houille,,1000,Brussels,Brussels,Brussels,50.854353,4.3472459,,,34,,,,,,,,0,,,,,,,,,,,,0,,,0,,0,,,,,,,,,,,,,,,,,,,0,,,Brussels,0.87
rbv72612,https://immovlan.be/en/detail/apartment/for-rent/1000/brussels/rbv72612,ImmoVlan,2026-06-15,2026-04-19,/Volumes/nstephane/Dev/AI_Data_Science_training/immo-eliza-scraping/data/html/rbv72612.html,flat,apartment,for-rent,0,1650,51.56,,,Quai à la Houille,,1000,Brussels,Brussels,Brussels,50.854353,4.3472459,,,32,,,,,,,,0,,,,,,,,,,,,0,,,0,,0,,,,,,,,,,,,,,,,,,,2,,,Brussels,0.87
rbv81073,https://immovlan.be/en/detail/apartment/for-rent/1000/brussels/rbv81073,ImmoVlan,2026-06-15,2026-05-01,/Volumes/nstephane/Dev/AI_Data_Science_training/immo-eliza-scraping/data/html/rbv81073.html,flat,apartment,for-rent,0,1650,48.53,,,Quai à la Houille,,1000,Brussels,Brussels,Brussels,50.854353,4.3472459,,,34,,,,,,,,0,,,,,,,,,,,,0,,,0,,0,,,,,,,,,,,,,,,,,,,2,,,Brussels,0.87
rbv81077,https://immovlan.be/en/detail/apartment/for-rent/1000/brussels/rbv81077,ImmoVlan,2026-06-15,2026-05-01,/Volumes/nstephane/Dev/AI_Data_Science_training/immo-eliza-scraping/data/html/rbv81077.html,flat,apartment,for-rent,0,2150,33.59,,,Quai à la Houille,,1000,Brussels,Brussels,Brussels,50.854353,4.3472459,,,64,,,,,,,,0,,,,,,,,,,,,0,,,1,,0,,,,,,,,,,,,,,,,,,,1,,,Brussels,0.87
rbv82223,https://immovlan.be/en/detail/apartment/for-rent/1000/brussels/rbv82223,ImmoVlan,2026-06-15,2026-05-04,/Volumes/nstephane/Dev/AI_Data_Science_training/immo-eliza-scraping/data/html/rbv82223.html,flat,apartment,for-rent,0,1650,50.0,,,Quai à la Houille,,1000,Brussels,Brussels,Brussels,50.854353,4.3472459,,,33,,,,,,,,0,,,,,,,,,,,,0,,,0,,0,,,,,,,,,,,,,,,,,,,2,,,Brussels,0.87
rbv82975,https://immovlan.be/en/detail/apartment/for-rent/1000/brussels/rbv82975,ImmoVlan,2026-06-15,2026-05-05,/Volumes/nstephane/Dev/AI_Data_Science_training/immo-eliza-scraping/data/html/rbv82975.html,flat,apartment,for-rent,0,1797,37.44,,,Boulevard du Régent,,1000,Brussels,Brussels,Brussels,50.8393123,4.3626349,,,48,,,,,,,,0,,,,,,,,,,,,0,,,1,,1,,,,,,,,,,,,,,,,,,,5,,,Brussels,1.21
rbv86845,https://immovlan.be/en/detail/apartment/for-rent/1000/brussels/rbv86845,ImmoVlan,2026-06-15,2026-05-09,/Volumes/nstephane/Dev/AI_Data_Science_training/immo-eliza-scraping/data/html/rbv86845.html,flat,apartment,for-rent,0,2700,16.17,,,,,1000,Brussels,Brussels,Brussels,50.8427501,4.3515499,2,18;15,167,,,,,3,3,1960,0,,,Double glass,,0,0,150,C,0,,,0,,,1,17,,,,2,,,,1,1,,,,,Immediately,Normal,,,,9,3,300,,Brussels,0.45
rbv88506,https://immovlan.be/en/detail/apartment/for-rent/1000/brussels/rbv88506,ImmoVlan,2026-06-15,2026-05-12,/Volumes/nstephane/Dev/AI_Data_Science_training/immo-eliza-scraping/data/html/rbv88506.html,flat,apartment,for-rent,0,1250,28.41,,,,,1000,Brussels,Brussels,Brussels,50.8427501,4.3515499,1,,44,,,,1,,,,0,1,,Double glass,,0,0,203,D,0,,,0,,,0,,,,,,,,,,1,,,,,From 30/04/2026,Normal,,,,3,1,250,,Brussels,0.45
rbv88627,https://immovlan.be/en/detail/apartment/for-rent/1000/brussels/rbv88627,ImmoVlan,2026-06-15,2026-05-13,/Volumes/nstephane/Dev/AI_Data_Science_training/immo-eliza-scraping/data/html/rbv88627.html,flat,apartment,for-rent,0,1595,15.95,,,Square Ambiorix,32,1000,Brussels,Brussels,Brussels,50.8461,4.3834,2,,100,37,,,1,1,2,,0,0,Gas,,,,,166,D,1,,,0,,,1,6,,,,,,,,1,,,,,,Immediately,Normal,,,,,1,250,,Brussels,2.35
rbv88778,https://immovlan.be/en/detail/apartment/for-rent/1000/brussels/rbv88778,ImmoVlan,2026-06-15,2026-05-13,/Volumes/nstephane/Dev/AI_Data_Science_training/immo-eliza-scraping/data/html/rbv88778.html,flat,apartment,for-rent,0,1450,16.11,,,Square Marguerite,1,1000,Brussels,Brussels,Brussels,50.8474,4.38542,2,,90,33,,,2,,2,,0,0,Gas,,,,,167,D,0,2,,0,,,1,3,,1,1,,,,,1,,,,,,From 01/08/2026,Normal,,,,,7,200,,Brussels,2.49
rbv89542,https://immovlan.be/en/detail/apartment/for-rent/1000/brussels/rbv89542,ImmoVlan,2026-06-15,2026-05-15,/Volumes/nstephane/Dev/AI_Data_Science_training/immo-eliza-scraping/data/html/rbv89542.html,flat,apartment,for-rent,0,1920,15.87,,,Akenkaai,36 203,1000,Brussels,Brussels,Brussels,50.8621672,4.3505289,3,12;14;11,121,46,,Super equipped,1,1,2,2018,0,0,Gas,Double glass,,,,63,B,1,2,,0,,,1,28,1,1,,,,,0,1,1,,,,,Immediately,Excellent,,,,7,2,,,Brussels,1.72
rbv89934,https://immovlan.be/en/detail/apartment/for-rent/1000/brussels/rbv89934,ImmoVlan,2026-06-15,2026-05-15,/Volumes/nstephane/Dev/AI_Data_Science_training/immo-eliza-scraping/data/html/rbv89934.html,flat,apartment,for-rent,0,1000,22.22,,,IMPASSE DE LA POUPÉE,4,1000,Brussels,Brussels,Brussels,50.84565,4.35315,1,15,45,,6,,1,,,1850,0,,,Double glass,,0,0,187,D,1,1,,0,,,0,,,,,,,,,,1,,,,,,Excellent,,,,4,2,100,,Brussels,0.26
rbv92719,https://immovlan.be/en/detail/apartment/for-rent/1000/brussels/rbv92719,ImmoVlan,2026-06-15,2026-05-18,/Volumes/nstephane/Dev/AI_Data_Science_training/immo-eliza-scraping/data/html/rbv92719.html,flat,apartment,for-rent,0,2200,31.43,,,Quai à la Houille,,1000,Brussels,Brussels,Brussels,50.854353,4.3472459,,,70,,,,,,,,0,,,,,,,,,,,,0,,,1,,1,,,,,,,,,,,,,,,,,,,1,,,Brussels,0.87
rbv96642,https://immovlan.be/en/detail/apartment/for-rent/1000/brussels/rbv96642,ImmoVlan,2026-06-15,2026-05-22,/Volumes/nstephane/Dev/AI_Data_Science_training/immo-eliza-scraping/data/html/rbv96642.html,flat,apartment,for-rent,0,1950,19.12,,,rue Boduognat 9 D 2.,1,1000,Brussels,Brussels,Brussels,50.8460203,4.3804519,2,,102,,,,2,,2,2017,0,1,Gas,,,,,98,C,1,2,,0,,,1,15,,1,,,,,,0,,,,,,Immediately,Normal,,,,,2,100,,Brussels,2.15
rbv92763,https://immovlan.be/en/detail/apartment/for-rent/1000/brussels/rbv92763,ImmoVlan,2026-06-15,2026-05-18,/Volumes/nstephane/Dev/AI_Data_Science_training/immo-eliza-scraping/data/html/rbv92763.html,flat,apartment,for-rent,0,2250,16.07,,,Rue Potagère,150,1000,Brussels,Brussels,Brussels,50.855841,4.3738632,3,,140,,,Super equipped,1,,1,,,1,Gas,Double glass,,,,206,D,0,2,,0,,,1,3,,,,,,,0,0,1,,,,,,Excellent,,,,4,1,,,Brussels,1.97
rbw02203,https://immovlan.be/en/detail/apartment/for-rent/1000/brussels/rbw02203,ImmoVlan,2026-06-15,2026-05-27,/Volumes/nstephane/Dev/AI_Data_Science_training/immo-eliza-scraping/data/html/rbw02203.html,flat,apartment,for-rent,0,1650,55.0,,,Boulevard Anspach,,1000,Brussels,Brussels,Brussels,50.8462619,4.3471153,,,30,,,,,,,,0,,,,,,,,,,,,0,,,0,,0,,,,,,,,,,,,,,,,,,,1,,,Brussels,0.2
rbw02206,https://immovlan.be/en/detail/apartment/for-rent/1000/brussels/rbw02206,ImmoVlan,2026-06-15,2026-05-27,/Volumes/nstephane/Dev/AI_Data_Science_training/immo-eliza-scraping/data/html/rbw02206.html,flat,apartment,for-rent,0,1650,55.0,,,Boulevard Anspach,,1000,Brussels,Brussels,Brussels,50.8462619,4.3471153,,,30,,,,,,,,0,,,,,,,,,,,,0,,,0,,0,,,,,,,,,,,,,,,,,,,4,,,Brussels,0.2
rbw02207,https://immovlan.be/en/detail/apartment/for-rent/1000/brussels/rbw02207,ImmoVlan,2026-06-15,2026-05-27,/Volumes/nstephane/Dev/AI_Data_Science_training/immo-eliza-scraping/data/html/rbw02207.html,flat,apartment,for-rent,0,2200,48.89,,,Boulevard Anspach,,1000,Brussels,Brussels,Brussels,50.8462619,4.3471153,,,45,,,,,,,,0,,,,,,,,,,,,0,,,0,,0,,,,,,,,,,,,,,,,,,,1,,,Brussels,0.2
rbw02334,https://immovlan.be/en/detail/apartment/for-rent/1000/brussels/rbw02334,ImmoVlan,2026-06-15,2026-05-27,/Volumes/nstephane/Dev/AI_Data_Science_training/immo-eliza-scraping/data/html/rbw02334.html,flat,apartment,for-rent,0,950,27.14,,,Rue de l'Eclipse,9,1000,Brussels,Brussels,Brussels,50.8465163,4.3467651,1,,35,,,,1,1,1,,0,1,Gas,Double glass,,,,224,E,,2,,,,,,,,,,,,,,,,,,,,Immediately,Excellent,,,,3,0,,,Brussels,0.22
rbw02212,https://immovlan.be/en/detail/apartment/for-rent/1000/brussels/rbw02212,ImmoVlan,2026-06-15,2026-05-27,/Volumes/nstephane/Dev/AI_Data_Science_training/immo-eliza-scraping/data/html/rbw02212.html,flat,apartment,for-rent,0,1450,48.33,,,Rue de la Caserne,,1000,Brussels,Brussels,Brussels,50.8429687,4.3432299,,,30,,,,,,,,0,,,,,,,,,,,,0,,,0,,1,,,,,,,,,,,,,,,,,,,3,,,Brussels,0.63
rbw02339,https://immovlan.be/en/detail/apartment/for-rent/1000/brussels/rbw02339,ImmoVlan,2026-06-15,2026-05-27,/Volumes/nstephane/Dev/AI_Data_Science_training/immo-eliza-scraping/data/html/rbw02339.html,flat,apartment,for-rent,0,3200,23.19,,,Avenue Louise,541,1000,Brussels,Brussels,Brussels,50.8149715,4.3709719,2,20;15,138,,,Super equipped,2,,2,1950,,1,,,,,,158,D,0,2,,1,,,1,21,,1,,,1,1,0,1,1,,,,,Immediately,Excellent,,,,4,0,500,,Brussels,3.83
rbw03103,https://immovlan.be/en/detail/apartment/for-rent/1000/brussels/rbw03103,ImmoVlan,2026-06-15,2026-05-28,/Volumes/nstephane/Dev/AI_Data_Science_training/immo-eliza-scraping/data/html/rbw03103.html,flat,apartment,for-rent,0,1550,15.05,,,Rue Antoine Dansaert,18,1000,Brussels,Brussels,Brussels,50.8492035,4.3472701,2,,103,,,Super equipped,1,1,1,1892,,0,Gas,,,,,203,D,0,2,,0,,,1,3,,,,,,,0,1,,,,,,Immediately,Excellent,,,,5,3,200,,Brussels,0.33
rbw03895,https://immovlan.be/en/detail/apartment/for-rent/1000/brussels/rbw03895,ImmoVlan,2026-06-15,2026-05-29,/Volumes/nstephane/Dev/AI_Data_Science_training/immo-eliza-scraping/data/html/rbw03895.html,flat,apartment,for-rent,0,2250,15.1,,,Rue Bodenbroek,22,1000,Brussels,Brussels,Brussels,50.8407474,4.3568961,2,16;11,149,60,14,Super equipped,2,,2,,,0,Gas,Double glass,,,,169,D,0,,,0,,,1,41,,1,,1,,1,0,1,1,,,,,Immediately,Excellent,,,,3,2,,,Brussels,0.82
rbw08766,https://immovlan.be/en/detail/apartment/for-rent/1000/brussels/rbw08766,ImmoVlan,2026-06-15,2026-06-01,/Volumes/nstephane/Dev/AI_Data_Science_training/immo-eliza-scraping/data/html/rbw08766.html,flat,apartment,for-rent,0,1700,45.95,,,Quai à la Houille,,1000,Brussels,Brussels,Brussels,50.854353,4.3472459,,,37,,,,,,,,0,,,,,,,,,,,,,,,,,1,,,,,,,,,,,,,,,,,,,5,,,Brussels,0.87
rbw08767,https://immovlan.be/en/detail/apartment/for-rent/1000/brussels/rbw08767,ImmoVlan,2026-06-15,2026-06-01,/Volumes/nstephane/Dev/AI_Data_Science_training/immo-eliza-scraping/data/html/rbw08767.html,flat,apartment,for-rent,0,2218,36.36,,,Boulevard du Régent,,1000,Brussels,Brussels,Brussels,50.8406176,4.3652808,,,61,,,,,,,,0,,,,,,,,,,,,,,,1,,1,,,,,,,,,,,,,,,,,,,4,,,Brussels,1.27
rbw08768,https://immovlan.be/en/detail/apartment/for-rent/1000/brussels/rbw08768,ImmoVlan,2026-06-15,2026-06-01,/Volumes/nstephane/Dev/AI_Data_Science_training/immo-eliza-scraping/data/html/rbw08768.html,flat,apartment,for-rent,0,2036,25.77,,,Boulevard du Régent,,1000,Brussels,Brussels,Brussels,50.8485234,4.3687595,,,79,,,,,,,,0,,,,,,,,,,,,,,,,,1,,,,,,,,,,,,,,,,,,,7,,,Brussels,1.34
rbw08769,https://immovlan.be/en/detail/apartment/for-rent/1000/brussels/rbw08769,ImmoVlan,2026-06-15,2026-06-01,/Volumes/nstephane/Dev/AI_Data_Science_training/immo-eliza-scraping/data/html/rbw08769.html,flat,apartment,for-rent,0,1500,51.72,,,Quai à la Houille,,1000,Brussels,Brussels,Brussels,50.854353,4.3472459,,,29,,,,,,,,0,,,,,,,,,,,,,,,,,0,,,,,,,,,,,,,,,,,,,4,,,Brussels,0.87
rbw08770,https://immovlan.be/en/detail/apartment/for-rent/1000/brussels/rbw08770,ImmoVlan,2026-06-15,2026-06-01,/Volumes/nstephane/Dev/AI_Data_Science_training/immo-eliza-scraping/data/html/rbw08770.html,flat,apartment,for-rent,0,1900,35.85,,,Quai à la Houille,,1000,Brussels,Brussels,Brussels,50.854353,4.3472459,,,53,,,,,,,,0,,,,,,,,,,,,,,,,,0,,,,,,,,,,,,,,,,,,,6,,,Brussels,0.87
rbw08771,https://immovlan.be/en/detail/apartment/for-rent/1000/brussels/rbw08771,ImmoVlan,2026-06-15,2026-06-01,/Volumes/nstephane/Dev/AI_Data_Science_training/immo-eliza-scraping/data/html/rbw08771.html,flat,apartment,for-rent,0,1700,45.95,,,Quai à la Houille,,1000,Brussels,Brussels,Brussels,50.854353,4.3472459,,,37,,,,,,,,0,,,,,,,,,,,,,,,,,1,,,,,,,,,,,,,,,,,,,5,,,Brussels,0.87
rbw08776,https://immovlan.be/en/detail/apartment/for-rent/1000/brussels/rbw08776,ImmoVlan,2026-06-15,2026-06-01,/Volumes/nstephane/Dev/AI_Data_Science_training/immo-eliza-scraping/data/html/rbw08776.html,flat,apartment,for-rent,0,1600,55.17,,,Quai à la Houille,,1000,Brussels,Brussels,Brussels,50.854353,4.3472459,,,29,,,,,,,,0,,,,,,,,,,,,,,,,,0,,,,,,,,,,,,,,,,,,,2,,,Brussels,0.87
rbw08778,https://immovlan.be/en/detail/apartment/for-rent/1000/brussels/rbw08778,ImmoVlan,2026-06-15,2026-06-01,/Volumes/nstephane/Dev/AI_Data_Science_training/immo-eliza-scraping/data/html/rbw08778.html,flat,apartment,for-rent,0,1500,50.0,,,Quai à la Houille,,1000,Brussels,Brussels,Brussels,50.854353,4.3472459,,,30,,,,,,,,0,,,,,,,,,,,,,,,,,0,,,,,,,,,,,,,,,,,,,4,,,Brussels,0.87
rbw13320,https://immovlan.be/en/detail/apartment/for-rent/1000/brussels/rbw13320,ImmoVlan,2026-06-15,2026-06-06,/Volumes/nstephane/Dev/AI_Data_Science_training/immo-eliza-scraping/data/html/rbw13320.html,flat,apartment,for-rent,0,1450,18.83,,,Rue des Patriotes,,1000,Brussels,Brussels,Brussels,50.8472219,4.3883683,,,77,,,,,,,,0,,,,,,,,,,,,,,,,,0,,,,,,,,,,,,,,,,,,,0,,,Brussels,2.7
rbw08783,https://immovlan.be/en/detail/apartment/for-rent/1000/brussels/rbw08783,ImmoVlan,2026-06-15,2026-06-01,/Volumes/nstephane/Dev/AI_Data_Science_training/immo-eliza-scraping/data/html/rbw08783.html,flat,apartment,for-rent,0,1600,47.06,,,Quai à la Houille,,1000,Brussels,Brussels,Brussels,50.854353,4.3472459,,,34,,,,,,,,0,,,,,,,,,,,,,,,,,0,,,,,,,,,,,,,,,,,,,3,,,Brussels,0.87
rbw13321,https://immovlan.be/en/detail/apartment/for-rent/1000/brussels/rbw13321,ImmoVlan,2026-06-15,2026-06-06,/Volumes/nstephane/Dev/AI_Data_Science_training/immo-eliza-scraping/data/html/rbw13321.html,flat,apartment,for-rent,0,2090,29.86,,,Rue de la Tribune,,1000,Brussels,Brussels,Brussels,50.8482638,4.3652509,,,70,,,,,,,,0,,,,,,,,,,,,,,,,,0,,,,,,,,,,,,,,,,,,,3,,,Brussels,1.09
rbw15969,https://immovlan.be/en/detail/apartment/for-rent/1000/brussels/rbw15969,ImmoVlan,2026-06-15,2026-06-08,/Volumes/nstephane/Dev/AI_Data_Science_training/immo-eliza-scraping/data/html/rbw15969.html,flat,apartment,for-rent,0,1870,37.4,,,Rue de la Croix de Fer,,1000,Brussels,Brussels,Brussels,50.8482876,4.3653943,,,50,,,,,,,,0,,,,,,,,,,,,,,,,,0,,,,,,,,,,,,,,,,,,,2,,,Brussels,1.1
rbw16284,https://immovlan.be/en/detail/apartment/for-rent/1000/brussels/rbw16284,ImmoVlan,2026-06-15,2026-06-08,/Volumes/nstephane/Dev/AI_Data_Science_training/immo-eliza-scraping/data/html/rbw16284.html,flat,apartment,for-rent,0,1650,13.2,,,RUE DE SPA,52,1000,Brussels,Brussels,Brussels,50.8474669,4.37497898,2,,125,40,,,2,,1,,0,0,,,,,,132,C,0,,,,,,1,20,,,,,,,,1,,,,,,Immediately,,,,,,1,260,,Brussels,1.76
rbw16283,https://immovlan.be/en/detail/apartment/for-rent/1000/brussels/rbw16283,ImmoVlan,2026-06-15,2026-06-08,/Volumes/nstephane/Dev/AI_Data_Science_training/immo-eliza-scraping/data/html/rbw16283.html,flat,apartment,for-rent,0,1895,23.4,,,Rue Antoine Dansaert,64 5,1000,Brussels,Brussels,Brussels,50.8501582,4.34601397,2,,81,30,,,1,,1,,0,0,Gas,,,,,186,D,1,2,,,,,,,,,,,,,,0,,,,,,Immediately,Normal,,,,4,4,,,Brussels,0.47
rwc41906,https://immovlan.be/en/detail/apartment/for-rent/1000/brussels/rwc41906,ImmoVlan,2026-06-15,2026-02-25,/Volumes/nstephane/Dev/AI_Data_Science_training/immo-eliza-scraping/data/html/rwc41906.html,flat,apartment,for-rent,0,2474,29.11,,,Rue du Pays de Liège,4,1000,Brussels,Brussels,Brussels,50.8527798,4.346138,3,,85,,,Super equipped,2,,,,,1,Gas,Double glass,,,,,,,,,,,,,,,,,,,,,,1,,,,,From 26/02/2026,Excellent,,,,,1,,,Brussels,0.73
rwc42389,https://immovlan.be/en/detail/apartment/for-rent/1000/brussels/rwc42389,ImmoVlan,2026-06-15,2026-04-24,/Volumes/nstephane/Dev/AI_Data_Science_training/immo-eliza-scraping/data/html/rwc42389.html,flat,apartment,for-rent,0,1245,14.65,,,Rue Leonlepage,14,1000,Brussels,Brussels,Brussels,50.851817,4.3447652,1,,85,,,,1,,,,,,,,0,0,0,,,,2,,,,,1,,,,,,,,,,,,,,,,Fully renovated,,,,,,150,,Brussels,0.67
rwc42542,https://immovlan.be/en/detail/apartment/for-rent/1000/brussels/rwc42542,ImmoVlan,2026-06-15,2026-05-14,/Volumes/nstephane/Dev/AI_Data_Science_training/immo-eliza-scraping/data/html/rwc42542.html,flat,apartment,for-rent,0,7360,75.1,,,Rue du Miroir,7,1000,Brussels,Brussels,Brussels,50.8401418,4.3471979,3,,98,,,Super equipped,3,,,,,1,Gas,Double glass,,,,,,,,,,,,1,,,,,,,,,1,1,,,,,From 18/05/2026,Excellent,,,,,,,,Brussels,0.75
rwc42565,https://immovlan.be/en/detail/apartment/for-rent/1000/brussels/rwc42565,ImmoVlan,2026-06-15,2026-05-19,/Volumes/nstephane/Dev/AI_Data_Science_training/immo-eliza-scraping/data/html/rwc42565.html,flat,apartment,for-rent,0,1395,13.95,,,Handelskaai,,1000,Brussels,Brussels,Brussels,50.8564808,4.3482102,1,,100,55,,Fully equipped,1,,,2006,,0,Gas,Double glass,0,0,,,C,0,1,,,,,1,,,,,,,1,,1,1,,,,,Immediately,Excellent,,,,,1,85,,Brussels,1.09
rwc42636,https://immovlan.be/en/detail/apartment/for-rent/1000/brussels/rwc42636,ImmoVlan,2026-06-15,2026-05-27,/Volumes/nstephane/Dev/AI_Data_Science_training/immo-eliza-scraping/data/html/rwc42636.html,flat,apartment,for-rent,0,7738,124.81,,,Rue de Spa,14,1000,Brussels,Brussels,Brussels,50.8460391,4.3742058,1,,62,,,Super equipped,1,,,,,1,Gas,Double glass,,,,,,,,,,,,1,,,,,,,,,1,1,,,,,From 31/08/2026,Excellent,,,,,3,,,Brussels,1.71
rwc42637,https://immovlan.be/en/detail/apartment/for-rent/1000/brussels/rwc42637,ImmoVlan,2026-06-15,2026-05-27,/Volumes/nstephane/Dev/AI_Data_Science_training/immo-eliza-scraping/data/html/rwc42637.html,flat,apartment,for-rent,0,7456,135.56,,,Rue de Spa,14,1000,Brussels,Brussels,Brussels,50.8460391,4.3742058,1,,55,,,Super equipped,1,,,,,1,Gas,Double glass,,,,,,,,,1,,,1,,,,,,,,,1,1,,,,,From 14/09/2026,Excellent,,,,,,,,Brussels,1.71
rwc42642,https://immovlan.be/en/detail/apartment/for-rent/1000/brussels/rwc42642,ImmoVlan,2026-06-15,2026-05-27,/Volumes/nstephane/Dev/AI_Data_Science_training/immo-eliza-scraping/data/html/rwc42642.html,flat,apartment,for-rent,0,5799,35.15,,,Borgwal,14,1000,Brussels,Brussels,Brussels,50.8476922,4.3477091,3,,165,,,Super equipped,2,,,,,1,Gas,Double glass,,,,,,,,,,,,,,,,,,,,,,1,,,,,From 30/08/2026,Excellent,,,,,2,,,Brussels,0.19
vax87796,https://immovlan.be/en/detail/apartment/for-rent/1000/brussels/vax87796,ImmoVlan,2026-06-15,2022-05-16,/Volumes/nstephane/Dev/AI_Data_Science_training/immo-eliza-scraping/data/html/vax87796.html,flat,apartment,for-rent,0,1300,16.25,,,,,1000,Brussels,Brussels,Brussels,50.8427501,4.3515499,2,,80,20,,,,1,,,,,Gas,,,,,,,,3,,,,,1,10,,,,,,,,,,,,,,,,,,,,2,,,Brussels,0.45
vbc19892,https://immovlan.be/en/detail/apartment/for-rent/1000/brussels/vbc19892,ImmoVlan,2026-06-15,2025-01-12,/Volumes/nstephane/Dev/AI_Data_Science_training/immo-eliza-scraping/data/html/vbc19892.html,flat,apartment,for-rent,0,1175,19.58,,,Rue Joseph II,82,1000,Brussels,Brussels,Brussels,50.8452914,4.3752151,1,,60,,,Fully equipped,,1,1,2022,0,0,Electricity,,,,0,,,,,,1,,,1,1,,,,,,0,0,0,,,,,,From 02/04/2024,New,,,,6,4,100,,Brussels,1.78
vbc80497,https://immovlan.be/en/detail/apartment/for-rent/1000/brussels/vbc80497,ImmoVlan,2026-06-15,2025-05-26,/Volumes/nstephane/Dev/AI_Data_Science_training/immo-eliza-scraping/data/html/vbc80497.html,flat,apartment,for-rent,0,1825,20.28,,,Rue Philippe Le Bon,8 09,1000,Brussels,Brussels,Brussels,50.8455947,4.3758908,2,,90,,,,1,,2,2022,0,1,Electricity,,,,0,,,,,,1,,,1,4,,1,,,,,,0,,,,,,From 30/10/2025,Excellent,,,,6,2,240,,Brussels,1.83
vbc82952,https://immovlan.be/en/detail/apartment/for-rent/1000/brussels/vbc82952,ImmoVlan,2026-06-15,2025-05-30,/Volumes/nstephane/Dev/AI_Data_Science_training/immo-eliza-scraping/data/html/vbc82952.html,flat,apartment,for-rent,0,1200,18.75,,,,,1000,Brussels,Brussels,Brussels,50.8427501,4.3515499,1,14,64,20,,Super equipped,1,1,1,1980,,0,Gas,Double glass,,,,139,C,1,4,,0,,,0,,,1,,,,,1,1,,,,,,,Normal,,,,11,0,395,,Brussels,0.45
vbc97952,https://immovlan.be/en/detail/apartment/for-rent/1000/brussels/vbc97952,ImmoVlan,2026-06-15,2025-07-03,/Volumes/nstephane/Dev/AI_Data_Science_training/immo-eliza-scraping/data/html/vbc97952.html,flat,apartment,for-rent,0,1075,14.33,,,Rue aux Laines,33 2,1000,Brussels,Brussels,Brussels,50.8353072,4.3510648,1,12,75,,,Super equipped,1,2,2,,,0,Gas,Double glass,,,,224,E,1,2,,0,,,1,,,,,,,,0,0,1,,,,,,Excellent,,,,3,2,65,,Brussels,1.27
vbd35148,https://immovlan.be/en/detail/apartment/for-rent/1000/brussels/vbd35148,ImmoVlan,2026-06-15,2025-10-02,/Volumes/nstephane/Dev/AI_Data_Science_training/immo-eliza-scraping/data/html/vbd35148.html,flat,apartment,for-rent,0,1200,18.18,,,Drève du Parc,50 5,1000,Brussels,Brussels,Brussels,50.8653632,4.3434931,1,14,66,27,,Super equipped,1,1,1,,,0,Gas,Double glass,,1,,35,A,1,2,,0,,,1,6,,,,,,1,0,1,,,,,,,New,,,,6,1,150,,Brussels,2.12
vbd63475,https://immovlan.be/en/detail/apartment/for-rent/1000/brussels/vbd63475,ImmoVlan,2026-06-15,2025-12-11,/Volumes/nstephane/Dev/AI_Data_Science_training/immo-eliza-scraping/data/html/vbd63475.html,flat,apartment,for-rent,0,2900,,,,Chaussée de Vleurgat,,1000,Brussels,Brussels,Brussels,50.8228907,4.367136,,,0,,,,,,,,0,1,,,,,,,,,,,0,,,1,,0,,,,,,,,,,,,,From 08/06/2026,,,,,,,,,Brussels,2.91
vbd64340,https://immovlan.be/en/detail/apartment/for-rent/1000/brussels/vbd64340,ImmoVlan,2026-06-15,2025-12-13,/Volumes/nstephane/Dev/AI_Data_Science_training/immo-eliza-scraping/data/html/vbd64340.html,flat,apartment,for-rent,0,4450,,,,Rue Philippe Le Bon,,1000,Brussels,Brussels,Brussels,50.8462447,4.3766382,,,0,,,,,,,,0,1,,,,,,,,,,,0,,,1,,0,,,,,,,,,,,,,From 03/06/2026,,,,,,,,,Brussels,1.88
vbd67575,https://immovlan.be/en/detail/apartment/for-rent/1000/brussels/vbd67575,ImmoVlan,2026-06-15,2025-12-30,/Volumes/nstephane/Dev/AI_Data_Science_training/immo-eliza-scraping/data/html/vbd67575.html,flat,apartment,for-rent,0,1100,22.0,,,,,1000,Brussels,Brussels,Brussels,50.8427501,4.3515499,1,,50,30,,,,1,,,0,,Gas,,,,,,,,2,,0,,,0,,,,,,,,,,,,,,,From 01/02/2026,,,,,,3,45,,Brussels,0.45
vbd53175,https://immovlan.be/en/detail/apartment/for-rent/1000/brussels/vbd53175,ImmoVlan,2026-06-15,2025-11-15,/Volumes/nstephane/Dev/AI_Data_Science_training/immo-eliza-scraping/data/html/vbd53175.html,flat,apartment,for-rent,0,775,19.38,,,,,1000,Brussels,Brussels,Brussels,50.8427501,4.3515499,,,40,,,,,,,,0,,Gas,,,,0,200,D,,,,0,,,0,,,,,,,,,0,,,,,,,,,,,4,2,70,,Brussels,0.45
vbd41445,https://immovlan.be/en/detail/apartment/for-rent/1000/brussels/vbd41445,ImmoVlan,2026-06-15,2025-10-16,/Volumes/nstephane/Dev/AI_Data_Science_training/immo-eliza-scraping/data/html/vbd41445.html,flat,apartment,for-rent,0,1250,25.0,,,Rue Joseph II 21 C,1,1000,Brussels,Brussels,Brussels,50.8459861,4.3709806,1,,50,,,,,1,,1994,0,1,Gas,,,,0,,,,,,0,,,0,,,,,,,,,0,,,,,,From 02/08/2025,Excellent,,,,7,1,135,,Brussels,1.48
vbd74567,https://immovlan.be/en/detail/apartment/for-rent/1000/brussels/vbd74567,ImmoVlan,2026-06-15,2026-01-19,/Volumes/nstephane/Dev/AI_Data_Science_training/immo-eliza-scraping/data/html/vbd74567.html,flat,apartment,for-rent,0,1490,20.99,,,Rue Breydel,30,1000,Brussels,Brussels,Brussels,50.8409384,4.3838706,1,,71,,,Super equipped,1,,1,,,1,Gas,,,,,63,B,1,2,,0,,,1,,,,,,,,0,1,,,,,,,Excellent,,,,3,1,160,,Brussels,2.47
vbd75485,https://immovlan.be/en/detail/apartment/for-rent/1000/brussels/vbd75485,ImmoVlan,2026-06-15,2026-01-20,/Volumes/nstephane/Dev/AI_Data_Science_training/immo-eliza-scraping/data/html/vbd75485.html,flat,apartment,for-rent,0,1040,24.19,,,,,1000,Brussels,Brussels,Brussels,50.8427501,4.3515499,1,,43,,,,1,,1,,0,1,,,,,,152,D,,,,0,,,0,,,,,,,,,,,,,,,,,,,,,5,,,Brussels,0.45
vbd75615,https://immovlan.be/en/detail/apartment/for-rent/1000/brussels/vbd75615,ImmoVlan,2026-06-15,2026-01-20,/Volumes/nstephane/Dev/AI_Data_Science_training/immo-eliza-scraping/data/html/vbd75615.html,flat,apartment,for-rent,0,1120,20.36,,,,,1000,Brussels,Brussels,Brussels,50.8427501,4.3515499,1,,55,,,,1,,1,,0,1,,,,,,175,D,,,,0,,,0,,,,,,,,,,,,,,,,,,,,,3,,,Brussels,0.45
vbd77409,https://immovlan.be/en/detail/apartment/for-rent/1000/brussels/vbd77409,ImmoVlan,2026-06-15,2026-01-24,/Volumes/nstephane/Dev/AI_Data_Science_training/immo-eliza-scraping/data/html/vbd77409.html,flat,apartment,for-rent,0,5500,,,,Boulevard du Régent,,1000,Brussels,Brussels,Brussels,50.8486883,4.3687048,,,0,,,,,,,,0,1,,,,,1,,,,,,0,,,0,,0,,,,,,,,,,,,,From 14/06/2026,,,,,,,,,Brussels,1.34
vbd80503,https://immovlan.be/en/detail/apartment/for-rent/1000/brussels/vbd80503,ImmoVlan,2026-06-15,2026-01-31,/Volumes/nstephane/Dev/AI_Data_Science_training/immo-eliza-scraping/data/html/vbd80503.html,flat,apartment,for-rent,0,1000,,,,Place Rouppe,,1000,Brussels,Brussels,Brussels,50.8423041,4.3458451,,,0,,,,,,,,0,1,,,,,,,,,,,0,,,0,,0,,,,,,,,,,,,,From 14/06/2026,,,,,,,,,Brussels,0.57
vbd82334,https://immovlan.be/en/detail/apartment/for-rent/1000/brussels/vbd82334,ImmoVlan,2026-06-15,2026-02-04,/Volumes/nstephane/Dev/AI_Data_Science_training/immo-eliza-scraping/data/html/vbd82334.html,flat,apartment,for-rent,0,3600,,,,Boulevard du Régent,,1000,Brussels,Brussels,Brussels,50.8486883,4.3687048,,,0,,,,,,,,0,1,,,,,1,,,,,,0,,,0,,0,,,,,,,,,,,,,From 14/06/2026,,,,,,,,,Brussels,1.34
vbd82665,https://immovlan.be/en/detail/apartment/for-rent/1000/brussels/vbd82665,ImmoVlan,2026-06-15,2026-02-04,/Volumes/nstephane/Dev/AI_Data_Science_training/immo-eliza-scraping/data/html/vbd82665.html,flat,apartment,for-rent,0,710,11.45,,,St Josse ten Noode,,1000,1000 Brussels,Brussels,Brussels,50.8499102,4.3730202,1,,62,,,,1,,1,,0,1,,,,,,,,,,,0,,,0,,,,,,,,,,,,,,,,Excellent,,,,,2,,,Brussels,1.66
vbd78320,https://immovlan.be/en/detail/apartment/for-rent/1000/brussels/vbd78320,ImmoVlan,2026-06-15,2026-01-27,/Volumes/nstephane/Dev/AI_Data_Science_training/immo-eliza-scraping/data/html/vbd78320.html,flat,apartment,for-rent,0,1100,,,,Boulevard du Neuvième de Ligne,,1000,Brussels,Brussels,Brussels,50.8571647,4.3454796,,,0,,,,,,,,0,1,,,,,1,,,,,,0,,,0,,0,,,,,,,,,,,,,From 01/08/2026,,,,,,,,,Brussels,1.2
vbd83745,https://immovlan.be/en/detail/apartment/for-rent/1000/brussels/vbd83745,ImmoVlan,2026-06-15,2026-02-07,/Volumes/nstephane/Dev/AI_Data_Science_training/immo-eliza-scraping/data/html/vbd83745.html,flat,apartment,for-rent,0,1945,20.47,,,Rue du Commerce,57 02,1000,Brussels,Brussels,Brussels,50.8420503,4.3686609,2,15;8,95,,,Super equipped,1,1,2,1900,,0,Gas,,,,,186,D,0,2,North-west,0,,,0,,,,,,,,0,0,1,,,,,Immediately,Fully renovated,,,,3,2,15,,Brussels,1.42
vbd83953,https://immovlan.be/en/detail/apartment/for-rent/1000/brussels/vbd83953,ImmoVlan,2026-06-15,2026-02-08,/Volumes/nstephane/Dev/AI_Data_Science_training/immo-eliza-scraping/data/html/vbd83953.html,flat,apartment,for-rent,0,5500,,,,Boulevard du Régent,,1000,Brussels,Brussels,Brussels,50.8486883,4.3687048,,,0,,,,,,,,0,1,,,,,1,,,,,,0,,,0,,0,,,,,,,,,,,,,From 14/06/2026,,,,,,,,,Brussels,1.34
vbd83960,https://immovlan.be/en/detail/apartment/for-rent/1000/brussels/vbd83960,ImmoVlan,2026-06-15,2026-02-08,/Volumes/nstephane/Dev/AI_Data_Science_training/immo-eliza-scraping/data/html/vbd83960.html,flat,apartment,for-rent,0,5500,,,,Boulevard du Régent,,1000,Brussels,Brussels,Brussels,50.8486883,4.3687048,,,0,,,,,,,,0,1,,,,,1,,,,,,0,,,0,,0,,,,,,,,,,,,,From 14/06/2026,,,,,,,,,Brussels,1.34
vbd84027,https://immovlan.be/en/detail/apartment/for-rent/1000/brussels/vbd84027,ImmoVlan,2026-06-15,2026-02-09,/Volumes/nstephane/Dev/AI_Data_Science_training/immo-eliza-scraping/data/html/vbd84027.html,flat,apartment,for-rent,0,2900,,,,Place de la Vieille Halle aux Blés,,1000,Brussels,Brussels,Brussels,50.8440247,4.3514915,,,0,,,,,,,,0,1,,,,,,,,,,,0,,,0,,0,,,,,,,,,,,,,From 08/06/2026,,,,,,,,,Brussels,0.32
vbd84760,https://immovlan.be/en/detail/apartment/for-rent/1000/brussels/vbd84760,ImmoVlan,2026-06-15,2026-02-10,/Volumes/nstephane/Dev/AI_Data_Science_training/immo-eliza-scraping/data/html/vbd84760.html,flat,apartment,for-rent,0,3000,12.5,,,,,1000,Brussels,Brussels,Brussels,50.8427501,4.3515499,3,38;21;28,240,,11,,3,,3,1978,0,,,Double glass,,0,0,245,E,0,3,,1,,,1,,1,1,1,2,,,,1,1,,,,,Immediately,Excellent,,,,3,2,600,,Brussels,0.45
vbd84770,https://immovlan.be/en/detail/apartment/for-rent/1000/brussels/vbd84770,ImmoVlan,2026-06-15,2026-02-10,/Volumes/nstephane/Dev/AI_Data_Science_training/immo-eliza-scraping/data/html/vbd84770.html,flat,apartment,for-rent,0,1395,21.46,,,,,1000,Brussels,Brussels,Brussels,50.8427501,4.3515499,1,,65,,,,1,1,1,,0,,,Double glass,,0,0,150,C,0,2,West,0,,,1,,1,,,,,,,1,1,,,,,Immediately,New,,,,2,2,90,,Brussels,0.45
vbd86563,https://immovlan.be/en/detail/apartment/for-rent/1000/brussels/vbd86563,ImmoVlan,2026-06-15,2026-02-13,/Volumes/nstephane/Dev/AI_Data_Science_training/immo-eliza-scraping/data/html/vbd86563.html,flat,apartment,for-rent,0,1690,18.78,,,Rue Joseph II 21 B,5,1000,Brussels,Brussels,Brussels,50.8459861,4.3709806,2,,90,,,,1,,,1994,0,1,Gas,,,,0,,,,,,0,,,1,,,,,,,,,0,,,,,,From 23/02/2026,Normal,,,,7,5,225,,Brussels,1.48
vbd86569,https://immovlan.be/en/detail/apartment/for-rent/1000/brussels/vbd86569,ImmoVlan,2026-06-15,2026-02-13,/Volumes/nstephane/Dev/AI_Data_Science_training/immo-eliza-scraping/data/html/vbd86569.html,flat,apartment,for-rent,0,1450,16.29,,,Rue Joseph II 21 B,6,1000,Brussels,Brussels,Brussels,50.8459861,4.3709806,1,,89,,,,1,,,1994,0,1,Gas,,,,0,,,,,,0,,,0,,,,,,,,,0,,,,,,From 23/02/2026,New,,,,7,6,215,,Brussels,1.48
vbd87670,https://immovlan.be/en/detail/apartment/for-rent/1000/brussels/vbd87670,ImmoVlan,2026-06-15,2026-02-17,/Volumes/nstephane/Dev/AI_Data_Science_training/immo-eliza-scraping/data/html/vbd87670.html,flat,apartment,for-rent,0,1360,,,,Boulevard de Dixmude,,1000,Brussels,Brussels,Brussels,50.8569283,4.3465317,,,0,,,,,,,,0,1,,,,,1,,,,,,0,,,1,,0,,,,,,,,,,,,,From 01/08/2026,,,,,,,,,Brussels,1.16
vbd88224,https://immovlan.be/en/detail/apartment/for-rent/1000/brussels/vbd88224,ImmoVlan,2026-06-15,2026-02-18,/Volumes/nstephane/Dev/AI_Data_Science_training/immo-eliza-scraping/data/html/vbd88224.html,flat,apartment,for-rent,0,3400,22.67,,,Boulevard du Midi,33,1000,Brussels,Brussels,Brussels,50.8425908,4.3402467,2,,150,50,,,2,,1,,0,0,Gas,,,,,,,0,2,,0,,,1,100,,,,,,,,1,,,,,,Immediately,Normal,,,,10,10,300,,Brussels,0.82
vbd88326,https://immovlan.be/en/detail/apartment/for-rent/1000/brussels/vbd88326,ImmoVlan,2026-06-15,2026-02-18,/Volumes/nstephane/Dev/AI_Data_Science_training/immo-eliza-scraping/data/html/vbd88326.html,flat,apartment,for-rent,0,1230,19.22,,,Square Marie-Louise,18,1000,Brussels,Brussels,Brussels,50.8474636,4.3775405,1,,64,,,,1,,,,,1,,,,,,245,E,,2,,0,,,0,,,,,,,,,,,,,,,,Normal,,,,10,7,160,,Brussels,1.94
vbd88605,https://immovlan.be/en/detail/apartment/for-rent/1000/brussels/vbd88605,ImmoVlan,2026-06-15,2026-02-18,/Volumes/nstephane/Dev/AI_Data_Science_training/immo-eliza-scraping/data/html/vbd88605.html,flat,apartment,for-rent,0,1275,33.55,,,,,1000,Brussels,Brussels,Brussels,50.8427501,4.3515499,1,,38,,,,1,1,1,,0,1,,,,,,346,G,,,,0,,,0,,,,,,,,,,,,,,,,Fully renovated,,,,,4,,,Brussels,0.45
vbd88608,https://immovlan.be/en/detail/apartment/for-rent/1000/brussels/vbd88608,ImmoVlan,2026-06-15,2026-02-18,/Volumes/nstephane/Dev/AI_Data_Science_training/immo-eliza-scraping/data/html/vbd88608.html,flat,apartment,for-rent,0,1150,21.3,,,,,1000,Brussels,Brussels,Brussels,50.8427501,4.3515499,1,,54,,,,1,,1,,0,,Gas,,,,,162,D,,,,0,,,0,,,,,,,,,,,,,,,,,,,,,2,,,Brussels,0.45
vbd88609,https://immovlan.be/en/detail/apartment/for-rent/1000/brussels/vbd88609,ImmoVlan,2026-06-15,2026-02-18,/Volumes/nstephane/Dev/AI_Data_Science_training/immo-eliza-scraping/data/html/vbd88609.html,flat,apartment,for-rent,0,1225,20.42,,,,,1000,Brussels,Brussels,Brussels,50.8427501,4.3515499,2,,60,,,,2,,2,,0,1,,,,,,95,B,,,,0,,,1,,,,,,,,,,,,,,,,,,,,,1,,,Brussels,0.45
vbd89617,https://immovlan.be/en/detail/apartment/for-rent/1000/brussels/vbd89617,ImmoVlan,2026-06-15,2026-02-22,/Volumes/nstephane/Dev/AI_Data_Science_training/immo-eliza-scraping/data/html/vbd89617.html,flat,apartment,for-rent,0,2500,17.86,,,RUE AUX LAINES,6,1000,Brussels,Brussels,Brussels,50.83885,4.35652,2,,140,,,,2,,1,,0,,,Double glass,,0,0,123,C,0,2,,0,,,0,,,,,,,,,1,1,,,,,Immediately,Excellent,,,,5,2,,,Brussels,0.99
vbd91806,https://immovlan.be/en/detail/apartment/for-rent/1000/brussels/vbd91806,ImmoVlan,2026-06-15,2026-02-27,/Volumes/nstephane/Dev/AI_Data_Science_training/immo-eliza-scraping/data/html/vbd91806.html,flat,apartment,for-rent,0,1690,18.78,,,Rue Joseph II,21,1000,Brussels,Brussels,Brussels,50.8459861,4.3709806,2,14;9,90,30,,Super equipped,1,1,1,1994,,1,,Double glass,,,,124,C,1,2,North,0,,,1,5,,1,1,,,,0,1,1,,,,,Immediately,Excellent,,,19,6,5,250,,Brussels,1.48
vbd93115,https://immovlan.be/en/detail/apartment/for-rent/1000/brussels/vbd93115,ImmoVlan,2026-06-15,2026-03-03,/Volumes/nstephane/Dev/AI_Data_Science_training/immo-eliza-scraping/data/html/vbd93115.html,flat,apartment,for-rent,0,1050,,,,Avenue de la Brabançonne,,1000,Brussels,Brussels,Brussels,50.8482772,4.3851,,,0,,,,,,,,0,1,,,,,,,,,,,0,,,0,,0,,,,,,,,,,,,,From 14/06/2026,,,,,,,,,Brussels,2.48
vbd89618,https://immovlan.be/en/detail/apartment/for-rent/1000/brussels/vbd89618,ImmoVlan,2026-06-15,2026-02-22,/Volumes/nstephane/Dev/AI_Data_Science_training/immo-eliza-scraping/data/html/vbd89618.html,flat,apartment,for-rent,0,2750,11.96,,,RUE DU MAGISTRAT,10,1000,Brussels,Brussels,Brussels,50.82454,4.36503,3,11;23;18,230,,,,3,,1,,0,,,Double glass,,0,0,285,F,0,2,,0,,,1,,,1,,,,,,1,1,,,,,Immediately,Normal,,,,7,6,575,,Brussels,2.68
vbd88621,https://immovlan.be/en/detail/apartment/for-rent/1000/brussels/vbd88621,ImmoVlan,2026-06-15,2026-02-18,/Volumes/nstephane/Dev/AI_Data_Science_training/immo-eliza-scraping/data/html/vbd88621.html,flat,apartment,for-rent,0,1500,15.62,,,RUE FRANKLIN,126,1000,Brussels,Brussels,Brussels,50.84638,4.38948,1,,96,,,,1,,1,,0,,,Double glass,,0,0,191,D,0,,West,0,,,1,,,,,,,,,,1,,,,,Immediately,Excellent,,,,,1,100,,Brussels,2.78
vbd93118,https://immovlan.be/en/detail/apartment/for-rent/1000/brussels/vbd93118,ImmoVlan,2026-06-15,2026-03-03,/Volumes/nstephane/Dev/AI_Data_Science_training/immo-eliza-scraping/data/html/vbd93118.html,flat,apartment,for-rent,0,975,,,,Place du Béguinage,,1000,Brussels,Brussels,Brussels,50.8522616,4.3498377,,,0,,,,,,,,0,1,,,,,,,,,,,0,,,0,,0,,,,,,,,,,,,,From 14/06/2026,,,,,,,,,Brussels,0.62
vbd94630,https://immovlan.be/en/detail/apartment/for-rent/1000/brussels/vbd94630,ImmoVlan,2026-06-15,2026-03-05,/Volumes/nstephane/Dev/AI_Data_Science_training/immo-eliza-scraping/data/html/vbd94630.html,flat,apartment,for-rent,0,1350,,,,Avenue de l'H?liport,48,1000,Brussels,Brussels,Brussels,50.863423,4.3547239,,,0,,,,,,,,0,1,,,,,,321,F,0,,,0,,,0,,,1,,,,,,,,,,,,,,,,,,4,,,Brussels,1.89
vbd93179,https://immovlan.be/en/detail/apartment/for-rent/1000/brussels/vbd93179,ImmoVlan,2026-06-15,2026-03-03,/Volumes/nstephane/Dev/AI_Data_Science_training/immo-eliza-scraping/data/html/vbd93179.html,flat,apartment,for-rent,0,870,,,,Rue Saint-Michel,,1000,Brussels,Brussels,Brussels,50.8523006,4.3545209,,,0,,,,,,,,0,0,,,,,,,,,,,0,,,0,,0,,,,,,,,,,,,,From 14/06/2026,,,,,,,,,Brussels,0.7
vbd95892,https://immovlan.be/en/detail/apartment/for-rent/1000/brussels/vbd95892,ImmoVlan,2026-06-15,2026-03-09,/Volumes/nstephane/Dev/AI_Data_Science_training/immo-eliza-scraping/data/html/vbd95892.html,flat,apartment,for-rent,0,1085,,,,Kiekenmarkt,42,1000,Brussels,Brussels,Brussels,50.8485461,4.3513648,,,0,,,,,,,2014,0,1,,,,,,58,B,1,,,0,,,0,,,1,,,,,,,,,,,,,Normal,,,,,1,,,Brussels,0.23
vbd97355,https://immovlan.be/en/detail/apartment/for-rent/1000/brussels/vbd97355,ImmoVlan,2026-06-15,2026-03-12,/Volumes/nstephane/Dev/AI_Data_Science_training/immo-eliza-scraping/data/html/vbd97355.html,flat,apartment,for-rent,0,3850,17.11,,,,,1000,Brussels,Brussels,Brussels,50.8427501,4.3515499,3,35;18;16,225,56,,Super equipped,2,2,2,2020,,0,Gas,Double glass,,,,198,D,1,3,,0,,,1,70,,1,1,1,1,1,0,1,,,,,,,Excellent,,,,7,7,300,,Brussels,0.45
vbd96644,https://immovlan.be/en/detail/apartment/for-rent/1000/brussels/vbd96644,ImmoVlan,2026-06-15,2026-03-11,/Volumes/nstephane/Dev/AI_Data_Science_training/immo-eliza-scraping/data/html/vbd96644.html,flat,apartment,for-rent,0,1600,15.69,,,RUE SAINT-MICHEL,32,1000,Brussels,Brussels,Brussels,50.85193,4.35571,2,14;11,102,,,,,1,2,2024,1,,,Double glass,,0,0,88,B,1,2,West,0,,,1,,,,,,,,,1,1,,,,,From 31/05/2026,New,,,,3,3,185,,Brussels,0.71
vbd97760,https://immovlan.be/en/detail/apartment/for-rent/1000/brussels/vbd97760,ImmoVlan,2026-06-15,2026-03-13,/Volumes/nstephane/Dev/AI_Data_Science_training/immo-eliza-scraping/data/html/vbd97760.html,flat,apartment,for-rent,0,2000,16.67,,,,,1000,Brussels,Brussels,Brussels,50.8427501,4.3515499,2,25;20,120,50,,Super equipped,2,1,2,,0,0,Gas,Double glass,,,,129,C,1,2,,0,,,1,15,,,,,,,0,0,1,,,,,,Fully renovated,,,,3,3,75,,Brussels,0.45
vbd99299,https://immovlan.be/en/detail/apartment/for-rent/1000/brussels/vbd99299,ImmoVlan,2026-06-15,2026-03-18,/Volumes/nstephane/Dev/AI_Data_Science_training/immo-eliza-scraping/data/html/vbd99299.html,flat,apartment,for-rent,0,950,,,,Rue Henri Maus,,1000,Brussels,Brussels,Brussels,50.8477153,4.3497708,,,0,,,,,,,,0,1,,,,,,,,,,,0,,,0,,0,,,,,,,,,,,,,From 16/06/2026,,,,,,,,,Brussels,0.11
vbe00818,https://immovlan.be/en/detail/apartment/for-rent/1000/brussels/vbe00818,ImmoVlan,2026-06-15,2026-03-21,/Volumes/nstephane/Dev/AI_Data_Science_training/immo-eliza-scraping/data/html/vbe00818.html,flat,apartment,for-rent,0,2950,,,,Rue Antoine Dansaert,,1000,Brussels,Brussels,Brussels,50.8497606,4.3470949,,,0,,,,,,,,0,1,,,,,,,,,,,0,,,0,,0,,,,,,,,,,,,,From 12/06/2026,,,,,,,,,Brussels,0.39
vbe00243,https://immovlan.be/en/detail/apartment/for-rent/1000/brussels/vbe00243,ImmoVlan,2026-06-15,2026-03-20,/Volumes/nstephane/Dev/AI_Data_Science_training/immo-eliza-scraping/data/html/vbe00243.html,flat,apartment,for-rent,0,2250,,,,Rue Antoine Dansaert,,1000,Brussels,Brussels,Brussels,50.8497606,4.3470949,,,0,,,,,,,,0,1,,,,,,,,,,,0,,,0,,0,,,,,,,,,,,,,From 02/08/2026,,,,,,,,,Brussels,0.39
vbe00820,https://immovlan.be/en/detail/apartment/for-rent/1000/brussels/vbe00820,ImmoVlan,2026-06-15,2026-03-21,/Volumes/nstephane/Dev/AI_Data_Science_training/immo-eliza-scraping/data/html/vbe00820.html,flat,apartment,for-rent,0,2250,,,,Rue Antoine Dansaert,,1000,Brussels,Brussels,Brussels,50.8497606,4.3470949,,,0,,,,,,,,0,1,,,,,,,,,,,0,,,0,,0,,,,,,,,,,,,,From 12/06/2026,,,,,,,,,Brussels,0.39
vbe01505,https://immovlan.be/en/detail/apartment/for-rent/1000/brussels/vbe01505,ImmoVlan,2026-06-15,2026-03-23,/Volumes/nstephane/Dev/AI_Data_Science_training/immo-eliza-scraping/data/html/vbe01505.html,flat,apartment,for-rent,0,1550,27.19,,,AVENUE EMILE DE MOT,19,1000,Brussels,Brussels,Brussels,50.81666,4.37479,1,,57,,,,1,,1,2025,0,1,,Double glass,,1,1,45,A,1,2,North,0,,,1,11,,,,,,,,1,1,,,,,Immediately,New,,,,9,1,100,,Brussels,3.77
vbe02187,https://immovlan.be/en/detail/apartment/for-rent/1000/brussels/vbe02187,ImmoVlan,2026-06-15,2026-03-25,/Volumes/nstephane/Dev/AI_Data_Science_training/immo-eliza-scraping/data/html/vbe02187.html,flat,apartment,for-rent,0,1800,18.0,,,Avenue de la Forêt,99,1000,Brussels,Brussels,Brussels,50.8008051,4.3936144,2,,100,,,,2,,,2014,0,1,Gas,,,,,72,B,0,,,0,,,1,,,1,1,,,,,1,1,,,,,,Normal,,,,4,4,175,,Brussels,5.96
vbe02186,https://immovlan.be/en/detail/apartment/for-rent/1000/brussels/vbe02186,ImmoVlan,2026-06-15,2026-03-25,/Volumes/nstephane/Dev/AI_Data_Science_training/immo-eliza-scraping/data/html/vbe02186.html,flat,apartment,for-rent,1,1800,,,,Quai du Chantier,7,1000,Brussels,Brussels,Brussels,50.85619,4.34939,2,,0,,,,2,,,2012,0,1,Gas,,,,,175,D,0,,,0,,,1,,,1,1,,,,,1,,,,,,,New,,,,5,5,175,,Brussels,1.06
vbe03776,https://immovlan.be/en/detail/apartment/for-rent/1000/brussels/vbe03776,ImmoVlan,2026-06-15,2026-03-30,/Volumes/nstephane/Dev/AI_Data_Science_training/immo-eliza-scraping/data/html/vbe03776.html,flat,apartment,for-rent,0,1300,23.64,,,Rue Saint-Michel,16,1000,Brussels,Brussels,Brussels,50.85247,4.35464,1,,55,25,,,1,,1,,0,1,,,,,,191,D,1,2,North-east,0,,,1,2,,,,,,,,1,1,,,,,From 01/07/2026,,,,,5,3,100,,Brussels,0.72
vbe02195,https://immovlan.be/en/detail/apartment/for-rent/1000/brussels/vbe02195,ImmoVlan,2026-06-15,2026-03-25,/Volumes/nstephane/Dev/AI_Data_Science_training/immo-eliza-scraping/data/html/vbe02195.html,flat,apartment,for-rent,0,1650,,,,Rue Neuve,,1000,Brussels,Brussels,Brussels,50.8527397,4.3559251,,,0,,,,,,,,0,1,,,,,,,,,,,0,,,1,,0,,,,,,,,,,,,,From 03/07/2026,,,,,,,,,Brussels,0.79
vbe03876,https://immovlan.be/en/detail/apartment/for-rent/1000/brussels/vbe03876,ImmoVlan,2026-06-15,2026-03-31,/Volumes/nstephane/Dev/AI_Data_Science_training/immo-eliza-scraping/data/html/vbe03876.html,flat,apartment,for-rent,0,1350,,,,Rue de la Croix de Fer,,1000,Brussels,Brussels,Brussels,50.8483126,4.3653869,,,0,,,,,,,,0,1,,,,,1,,,,,,0,,,0,,0,,,,,,,,,,,,,From 29/06/2026,,,,,,,,,Brussels,1.1
vbe03922,https://immovlan.be/en/detail/apartment/for-rent/1000/brussels/vbe03922,ImmoVlan,2026-06-15,2026-03-31,/Volumes/nstephane/Dev/AI_Data_Science_training/immo-eliza-scraping/data/html/vbe03922.html,flat,apartment,for-rent,0,1300,,,,Rue de la Croix de Fer,,1000,Brussels,Brussels,Brussels,50.8483126,4.3653869,,,0,,,,,,,,0,1,,,,,1,,,,,,0,,,0,,0,,,,,,,,,,,,,From 29/06/2026,,,,,,,,,Brussels,1.1
vbe05017,https://immovlan.be/en/detail/apartment/for-rent/1000/brussels/vbe05017,ImmoVlan,2026-06-15,2026-04-02,/Volumes/nstephane/Dev/AI_Data_Science_training/immo-eliza-scraping/data/html/vbe05017.html,flat,apartment,for-rent,0,860,,,,Rue aux Fleurs,,1000,Brussels,Brussels,Brussels,50.8527753,4.3522809,,,0,,,,,,,,0,1,,,,,,,,,,,0,,,0,,0,,,,,,,,,,,,,From 01/07/2026,,,,,,,,,Brussels,0.7
vbe04565,https://immovlan.be/en/detail/apartment/for-rent/1000/brussels/vbe04565,ImmoVlan,2026-06-15,2026-04-01,/Volumes/nstephane/Dev/AI_Data_Science_training/immo-eliza-scraping/data/html/vbe04565.html,flat,apartment,for-rent,1,1675,18.61,,,Rue Philippe Le Bon,8 12,1000,Brussels,Brussels,Brussels,50.8455947,4.3758908,2,,90,,,,,1,2,2022,0,0,Electricity,,,,0,,,,,,1,,,1,4,,1,,,,,,0,,,,,,From 30/06/2026,New,,,,6,3,210,,Brussels,1.83
vbe05447,https://immovlan.be/en/detail/apartment/for-rent/1000/brussels/vbe05447,ImmoVlan,2026-06-15,2026-04-02,/Volumes/nstephane/Dev/AI_Data_Science_training/immo-eliza-scraping/data/html/vbe05447.html,flat,apartment,for-rent,0,1100,18.33,,,,,1000,Brussels,Brussels,Brussels,50.8427501,4.3515499,1,,60,,,Fully equipped,1,,1,,,0,,,,,,581,G,,2,,0,,,0,,,,,,,,0,0,,,,,,Immediately,Normal,,,,3,3,50,,Brussels,0.45
vbe04923,https://immovlan.be/en/detail/apartment/for-rent/1000/brussels/vbe04923,ImmoVlan,2026-06-15,2026-04-02,/Volumes/nstephane/Dev/AI_Data_Science_training/immo-eliza-scraping/data/html/vbe04923.html,flat,apartment,for-rent,0,815,,,,Rue de Malines,,1000,Brussels,Brussels,Brussels,50.8540484,4.3567878,,,0,,,,,,,,0,0,,,,,,,,,,,0,,,0,,0,,,,,,,,,,,,,From 01/07/2026,,,,,,,,,Brussels,0.95
vbe05019,https://immovlan.be/en/detail/apartment/for-rent/1000/brussels/vbe05019,ImmoVlan,2026-06-15,2026-04-02,/Volumes/nstephane/Dev/AI_Data_Science_training/immo-eliza-scraping/data/html/vbe05019.html,flat,apartment,for-rent,0,1100,,,,Place Rouppe,,1000,Brussels,Brussels,Brussels,50.8423041,4.3458451,,,0,,,,,,,,0,1,,,,,,,,,,,0,,,0,,0,,,,,,,,,,,,,From 01/07/2026,,,,,,,,,Brussels,0.57
vbe06639,https://immovlan.be/en/detail/apartment/for-rent/1000/brussels/vbe06639,ImmoVlan,2026-06-15,2026-04-04,/Volumes/nstephane/Dev/AI_Data_Science_training/immo-eliza-scraping/data/html/vbe06639.html,flat,apartment,for-rent,0,3250,14.44,,,RUE DES QUATRE FILS AYMON,7,1000,Brussels,Brussels,Brussels,50.84026,4.35742,2,,225,,,,2,,1,1987,0,1,,Double glass,,0,0,242,E,0,2,,1,,,1,,,1,,1,,,,,1,,,,,Immediately,Excellent,,,,4,,,,Brussels,0.89
vbe06647,https://immovlan.be/en/detail/apartment/for-rent/1000/brussels/vbe06647,ImmoVlan,2026-06-15,2026-04-04,/Volumes/nstephane/Dev/AI_Data_Science_training/immo-eliza-scraping/data/html/vbe06647.html,flat,apartment,for-rent,0,2900,14.08,,,Avenue Emile de Mot,23,1000,Brussels,Brussels,Brussels,50.81625,4.37489,2,,206,,,,1,2,,1925,0,1,,Double glass,,0,0,207,D,0,2,,0,,,1,,,1,,,,,,1,1,,,,,Immediately,New,,,,4,2,300,,Brussels,3.81
vbe06646,https://immovlan.be/en/detail/apartment/for-rent/1000/brussels/vbe06646,ImmoVlan,2026-06-15,2026-04-04,/Volumes/nstephane/Dev/AI_Data_Science_training/immo-eliza-scraping/data/html/vbe06646.html,flat,apartment,for-rent,0,2900,14.08,,,Avenue Emile de Mot,23,1000,Brussels,Brussels,Brussels,50.81625,4.37489,2,,206,,,,1,2,,1925,0,,,Double glass,,0,0,207,D,0,2,,0,,,0,,,1,,,,,,1,1,,,,,Immediately,New,,,,4,2,300,,Brussels,3.81
vbe06653,https://immovlan.be/en/detail/apartment/for-rent/1000/brussels/vbe06653,ImmoVlan,2026-06-15,2026-04-04,/Volumes/nstephane/Dev/AI_Data_Science_training/immo-eliza-scraping/data/html/vbe06653.html,flat,apartment,for-rent,0,9000,16.67,,,Avenue Franklin Roosevelt,95,1000,Brussels,Brussels,Brussels,50.80328,4.38724,3,,540,,,,4,,3,,0,,,Double glass,,0,1,135,C,0,4,,0,,,1,,,1,1,,,,,1,1,,,,,Immediately,New,,,,4,3,2000,,Brussels,5.49
vbe06792,https://immovlan.be/en/detail/apartment/for-rent/1000/brussels/vbe06792,ImmoVlan,2026-06-15,2026-04-06,/Volumes/nstephane/Dev/AI_Data_Science_training/immo-eliza-scraping/data/html/vbe06792.html,flat,apartment,for-rent,0,2100,19.09,,,Rue Montagne de l'Oratoire,28 61,1000,Brussels,Brussels,Brussels,50.8491696,4.3622122,2,19;16,110,45,,Super equipped,1,1,1,2014,,1,Gas,Double glass,,,,94,B,,2,West,,,,1,29,,,,1,,1,0,1,1,,,,,Immediately,Excellent,,,,8,6,225,,Brussels,0.91
vbe07733,https://immovlan.be/en/detail/apartment/for-rent/1000/brussels/vbe07733,ImmoVlan,2026-06-15,2026-04-09,/Volumes/nstephane/Dev/AI_Data_Science_training/immo-eliza-scraping/data/html/vbe07733.html,flat,apartment,for-rent,0,2450,19.6,,,Rue de l'Etuve 81 B,33,1000,Brussels,Brussels,Brussels,50.8442557,4.349101,2,15;12,125,40,,Super equipped,1,1,2,2005,0,1,Gas,Double glass,,,,144,C,1,2,,0,,,1,30,,1,1,1,,1,0,1,,,,,,,Excellent,,,,6,5,200,,Brussels,0.28
vbe08428,https://immovlan.be/en/detail/apartment/for-rent/1000/brussels/vbe08428,ImmoVlan,2026-06-15,2026-04-09,/Volumes/nstephane/Dev/AI_Data_Science_training/immo-eliza-scraping/data/html/vbe08428.html,flat,apartment,for-rent,0,1650,18.33,,,QUAI AU FOIN,59-65,1000,Brussels,Brussels,Brussels,50.85572,4.34864,2,15;9,90,,,,,1,1,2025,0,,,Double glass,,0,0,,,1,,South,0,,,1,13,,1,1,,,,,1,1,,,,,Immediately,New,,,,,2,150,,Brussels,1.01
vbe08233,https://immovlan.be/en/detail/apartment/for-rent/1000/brussels/vbe08233,ImmoVlan,2026-06-15,2026-04-09,/Volumes/nstephane/Dev/AI_Data_Science_training/immo-eliza-scraping/data/html/vbe08233.html,flat,apartment,for-rent,0,935,24.61,,,Rue d'Ophem,10,1000,Brussels,Brussels,Brussels,50.8532318,4.345006,1,9,38,20,,Super equipped,1,1,1,1870,,1,,Double glass,,,,499,G,1,2,East,0,,,0,,,,,,,1,0,0,1,,,,,Immediately,Fully renovated,,,6,4,4,125,,Brussels,0.8
vbe09941,https://immovlan.be/en/detail/apartment/for-rent/1000/brussels/vbe09941,ImmoVlan,2026-06-15,2026-04-14,/Volumes/nstephane/Dev/AI_Data_Science_training/immo-eliza-scraping/data/html/vbe09941.html,flat,apartment,for-rent,0,950,,,,Rue des Capucins,,1000,Brussels,Brussels,Brussels,50.8382243,4.3474045,,,0,,,,,,,,0,1,,,,,,,,,,,0,,,0,,0,,,,,,,,,,,,,From 13/07/2026,,,,,,,,,Brussels,0.96
vbe11323,https://immovlan.be/en/detail/apartment/for-rent/1000/brussels/vbe11323,ImmoVlan,2026-06-15,2026-04-16,/Volumes/nstephane/Dev/AI_Data_Science_training/immo-eliza-scraping/data/html/vbe11323.html,flat,apartment,for-rent,0,2190,18.25,,,"Place des Martyrs 21,",2D 21,1000,Brussels,Brussels,Brussels,50.8521805,4.3562856,4,,120,40,,,2,1,3,2002,0,1,Gas,,,,,182,D,0,,,0,,,0,,,1,1,,,,,0,,,,,,From 15/06/2026,Normal,,,,3,2,360,,Brussels,0.76
vbe10915,https://immovlan.be/en/detail/apartment/for-rent/1000/brussels/vbe10915,ImmoVlan,2026-06-15,2026-04-15,/Volumes/nstephane/Dev/AI_Data_Science_training/immo-eliza-scraping/data/html/vbe10915.html,flat,apartment,for-rent,0,1290,13.72,,,,,1000,Brussels,Brussels,Brussels,50.8427501,4.3515499,2,15;11,94,27,,Super equipped,2,1,1,2012,1,1,Gas,Double glass,,,,129,C,0,2,,0,,,1,9,,1,,1,,1,0,1,,,,,,,Normal,,,,5,1,100,,Brussels,0.45
vbe11454,https://immovlan.be/en/detail/apartment/for-rent/1000/brussels/vbe11454,ImmoVlan,2026-06-15,2026-04-17,/Volumes/nstephane/Dev/AI_Data_Science_training/immo-eliza-scraping/data/html/vbe11454.html,flat,apartment,for-rent,0,1050,,,,Avenue de la Brabançonne,,1000,Brussels,Brussels,Brussels,50.8482772,4.3851,,,0,,,,,,,,0,0,,,,,,,,,,,0,,,0,,0,,,,,,,,,,,,,From 16/07/2026,,,,,,,,,Brussels,2.48
vbe11510,https://immovlan.be/en/detail/apartment/for-rent/1000/brussels/vbe11510,ImmoVlan,2026-06-15,2026-04-17,/Volumes/nstephane/Dev/AI_Data_Science_training/immo-eliza-scraping/data/html/vbe11510.html,flat,apartment,for-rent,0,1150,15.33,,,Rue Le Tintoret,34,1000,Brussels,Brussels,Brussels,50.8460609,4.3900168,1,,75,34,5,Fully equipped,1,,1,1900,0,0,Gas,Double glass,,,,171,D,0,2,,0,,,0,,,,,,,,,0,1,,,,,,Excellent,,,,2,1,60,,Brussels,2.82
vbe09088,https://immovlan.be/en/detail/apartment/for-rent/1000/brussels/vbe09088,ImmoVlan,2026-06-15,2026-04-10,/Volumes/nstephane/Dev/AI_Data_Science_training/immo-eliza-scraping/data/html/vbe09088.html,flat,apartment,for-rent,0,1950,14.44,,,,,1000,Brussels,Brussels,Brussels,50.8427501,4.3515499,2,17;16,135,,10,,1,,2,1928,0,,,Double glass,,0,0,196,D,1,,West,0,,,0,,,1,1,,,,,1,1,,,,,Immediately,Excellent,,,,8,3,300,,Brussels,0.45
vbe12505,https://immovlan.be/en/detail/apartment/for-rent/1000/brussels/vbe12505,ImmoVlan,2026-06-15,2026-04-20,/Volumes/nstephane/Dev/AI_Data_Science_training/immo-eliza-scraping/data/html/vbe12505.html,flat,apartment,for-rent,0,1300,13.13,,,Rue Melsens,28 03,1000,Brussels,Brussels,Brussels,50.8502773,4.3488012,1,,99,33,2,Super equipped,1,,1,,,0,Gas,Double glass,,,,168,D,0,2,,0,,,1,4,,,,,,,,0,,,,,,Immediately,Excellent,,,,5,4,75,,Brussels,0.41
vbe12640,https://immovlan.be/en/detail/apartment/for-rent/1000/brussels/vbe12640,ImmoVlan,2026-06-15,2026-04-21,/Volumes/nstephane/Dev/AI_Data_Science_training/immo-eliza-scraping/data/html/vbe12640.html,flat,apartment,for-rent,0,1600,,,,Rue de Soignies,,1000,Brussels,Brussels,Brussels,50.8446908,4.3445658,,,0,,,,,,,,0,1,,,,,,,,,,,0,,,1,,0,,,,,,,,,,,,,From 20/07/2026,,,,,,,,,Brussels,0.44
vbe14969,https://immovlan.be/en/detail/apartment/for-rent/1000/brussels/vbe14969,ImmoVlan,2026-06-15,2026-04-25,/Volumes/nstephane/Dev/AI_Data_Science_training/immo-eliza-scraping/data/html/vbe14969.html,flat,apartment,for-rent,0,1500,20.0,,,Rue des Chartreux,15,1000,Brussels,Brussels,Brussels,50.8489185,4.3468704,1,18,75,50,10,Super equipped,1,1,1,,0,0,Gas,Double glass,,,,127,C,0,2,South,0,,,0,,,,,,,,0,1,1,,,,,Immediately,Normal,,,,4,3,150,,Brussels,0.33
vbe14155,https://immovlan.be/en/detail/apartment/for-rent/1000/brussels/vbe14155,ImmoVlan,2026-06-15,2026-04-23,/Volumes/nstephane/Dev/AI_Data_Science_training/immo-eliza-scraping/data/html/vbe14155.html,flat,apartment,for-rent,0,1325,14.56,,,Helihavenlaan 50 A2.,5,1000,Brussels,Brussels,Brussels,50.86359,4.354876,2,,91,,,,2,,2,2022,0,0,Gas,,,,,76,B,1,,,0,,,1,13,,,,,,,,1,,,,,,From 01/07/2026,Normal,,,,7,2,200,,Brussels,1.91
vbe13246,https://immovlan.be/en/detail/apartment/for-rent/1000/brussels/vbe13246,ImmoVlan,2026-06-15,2026-04-22,/Volumes/nstephane/Dev/AI_Data_Science_training/immo-eliza-scraping/data/html/vbe13246.html,flat,apartment,for-rent,0,1990,16.18,,,Rue Joseph II,130 5,1000,Brussels,Brussels,Brussels,50.8445018,4.3788329,3,17;10;11,123,30,10,Super equipped,2,,2,2000,0,0,Gas,Double glass,,,,97,C,1,2,South,0,,,0,,,,,,,1,0,1,1,,,,,Immediately,Excellent,,,,4,3,110,,Brussels,2.05
vbe13335,https://immovlan.be/en/detail/apartment/for-rent/1000/brussels/vbe13335,ImmoVlan,2026-06-15,2026-04-22,/Volumes/nstephane/Dev/AI_Data_Science_training/immo-eliza-scraping/data/html/vbe13335.html,flat,apartment,for-rent,0,1600,17.78,,,Place Jean Jacobs 6 7.,4,1000,Brussels,Brussels,Brussels,50.835676,4.3523299,2,15;11,90,32,,Super equipped,2,1,2,2017,,0,Gas,Double glass,,,0,,,1,2,,0,,,1,6,,1,,1,,1,,1,,,,,,Immediately,Excellent,,,,,7,150,,Brussels,1.24
vbe15223,https://immovlan.be/en/detail/apartment/for-rent/1000/brussels/vbe15223,ImmoVlan,2026-06-15,2026-04-27,/Volumes/nstephane/Dev/AI_Data_Science_training/immo-eliza-scraping/data/html/vbe15223.html,flat,apartment,for-rent,0,3400,22.67,,,Rue Ernest Allard,40,1000,Brussels,Brussels,Brussels,50.8388603,4.3533761,3,12;11;10,150,27,17,Super equipped,2,2,2,1889,,0,Electricity,Double glass,,,1,,,1,2,East,0,,,1,2,,,,,,,0,0,1,,,,,,Fully renovated,,,6,3,1,,,Brussels,0.91
vbe15823,https://immovlan.be/en/detail/apartment/for-rent/1000/brussels/vbe15823,ImmoVlan,2026-06-15,2026-04-28,/Volumes/nstephane/Dev/AI_Data_Science_training/immo-eliza-scraping/data/html/vbe15823.html,flat,apartment,for-rent,0,1400,24.14,,,Boulevard Emile Jacqmain,4,1000,Brussels,Brussels,Brussels,50.8522461,4.3529381,1,13,58,19,,Super equipped,1,,1,,1,1,Gas,Double glass,,,,108,C,,2,,0,,,1,,,,,,,1,0,1,,,,,,,Excellent,,,,9,4,195,,Brussels,0.65
vbe15788,https://immovlan.be/en/detail/apartment/for-rent/1000/brussels/vbe15788,ImmoVlan,2026-06-15,2026-04-28,/Volumes/nstephane/Dev/AI_Data_Science_training/immo-eliza-scraping/data/html/vbe15788.html,flat,apartment,for-rent,0,950,21.11,,,,,1000,Brussels,Brussels,Brussels,50.8427501,4.3515499,1,,45,,,,,1,1,,0,1,,,,,,195,D,,,,0,,,0,,,,,,,,,,,,,,,,,,,,,2,,,Brussels,0.45
vbe16391,https://immovlan.be/en/detail/apartment/for-rent/1000/brussels/vbe16391,ImmoVlan,2026-06-15,2026-04-29,/Volumes/nstephane/Dev/AI_Data_Science_training/immo-eliza-scraping/data/html/vbe16391.html,flat,apartment,for-rent,0,1800,18.0,,,,,1000,Brussels,Brussels,Brussels,50.8427501,4.3515499,2,12;19,100,37,14,Super equipped,2,1,2,,,0,,Double glass,,,,148,C,0,2,,,,,1,,,1,,1,1,,1,1,,,,,,Immediately,Fully renovated,,,,10,1,545,,Brussels,0.45
vbe16348,https://immovlan.be/en/detail/apartment/for-rent/1000/brussels/vbe16348,ImmoVlan,2026-06-15,2026-04-29,/Volumes/nstephane/Dev/AI_Data_Science_training/immo-eliza-scraping/data/html/vbe16348.html,flat,apartment,for-rent,0,1200,26.67,,,Enseignement,,1000,Brussels,Brussels,Brussels,50.8427501,4.3515499,,,45,25,,,,1,,,0,,,,,,,95,B,,2,,0,,,1,2,,,,,,,,,,,,,,From 01/06/2026,,,,,,2,75,,Brussels,0.45
vbe16143,https://immovlan.be/en/detail/apartment/for-rent/1000/brussels/vbe16143,ImmoVlan,2026-06-15,2026-04-29,/Volumes/nstephane/Dev/AI_Data_Science_training/immo-eliza-scraping/data/html/vbe16143.html,flat,apartment,for-rent,0,2000,20.83,,,Rue du Commerce,74,1000,Brussels,Brussels,Brussels,50.8430672,4.3685926,2,16;13,96,,,Super equipped,2,2,2,,,1,Gas,Double glass,,,,83,B,1,2,,0,,,1,9,,,,1,,,0,1,,,,,,,Normal,,,,2,1,150,,Brussels,1.37
vbe16389,https://immovlan.be/en/detail/apartment/for-rent/1000/brussels/vbe16389,ImmoVlan,2026-06-15,2026-04-29,/Volumes/nstephane/Dev/AI_Data_Science_training/immo-eliza-scraping/data/html/vbe16389.html,flat,apartment,for-rent,0,1200,20.0,,,,,1000,Brussels,Brussels,Brussels,50.8427501,4.3515499,1,14,60,21,6,,1,1,1,,,,,Double glass,,,,139,C,0,,,0,,,0,,,,,1,1,,1,1,,,,,,Immediately,Excellent,,,,10,0,395,,Brussels,0.45
vbe16423,https://immovlan.be/en/detail/apartment/for-rent/1000/brussels/vbe16423,ImmoVlan,2026-06-15,2026-04-29,/Volumes/nstephane/Dev/AI_Data_Science_training/immo-eliza-scraping/data/html/vbe16423.html,flat,apartment,for-rent,0,2500,14.62,,,Rue du Colombier,5,1000,Brussels,Brussels,Brussels,50.8525412,4.3551612,3,,171,64,,,2,,,,0,,Gas,,,,,121,C,,2,,0,,,1,58,,,,,,,,,,,,,,,,,,,,4,100,,Brussels,0.75
vbe16516,https://immovlan.be/en/detail/apartment/for-rent/1000/brussels/vbe16516,ImmoVlan,2026-06-15,2026-04-29,/Volumes/nstephane/Dev/AI_Data_Science_training/immo-eliza-scraping/data/html/vbe16516.html,flat,apartment,for-rent,0,1225,17.01,,,Saint Jean,4,1000,Brussels,Brussels,Brussels,50.8442607,4.3550895,1,15,72,,,Super equipped,1,,1,1960,,0,,,,,,68,B,1,2,,0,,,0,,,,,,,,0,1,,,,,,,Normal,,,,5,4,120,,Brussels,0.45
vbe16725,https://immovlan.be/en/detail/apartment/for-rent/1000/brussels/vbe16725,ImmoVlan,2026-06-15,2026-04-30,/Volumes/nstephane/Dev/AI_Data_Science_training/immo-eliza-scraping/data/html/vbe16725.html,flat,apartment,for-rent,0,1355,14.89,,,Helihavenlaan 50 A5.,4,1000,Brussels,Brussels,Brussels,50.8636,4.354877,2,,91,,,,2,,2,2022,0,0,Gas,,,,,80,B,1,,,0,,,1,13,,1,,,,,,1,,,,,,From 01/07/2026,Normal,,,,,4,200,,Brussels,1.91
vbe17342,https://immovlan.be/en/detail/apartment/for-rent/1000/brussels/vbe17342,ImmoVlan,2026-06-15,2026-05-03,/Volumes/nstephane/Dev/AI_Data_Science_training/immo-eliza-scraping/data/html/vbe17342.html,flat,apartment,for-rent,0,860,,,,Rue aux Fleurs,,1000,Brussels,Brussels,Brussels,50.8527753,4.3522809,,,0,,,,,,,,0,1,,,,,,,,,,,0,,,0,,0,,,,,,,,,,,,,From 01/08/2026,,,,,,,,,Brussels,0.7
vbe17314,https://immovlan.be/en/detail/apartment/for-rent/1000/brussels/vbe17314,ImmoVlan,2026-06-15,2026-05-03,/Volumes/nstephane/Dev/AI_Data_Science_training/immo-eliza-scraping/data/html/vbe17314.html,flat,apartment,for-rent,0,975,,,,Place du Béguinage,,1000,Brussels,Brussels,Brussels,50.8522616,4.3498377,,,0,,,,,,,,0,1,,,,,,,,,,,0,,,0,,0,,,,,,,,,,,,,From 01/08/2026,,,,,,,,,Brussels,0.62
vbe17319,https://immovlan.be/en/detail/apartment/for-rent/1000/brussels/vbe17319,ImmoVlan,2026-06-15,2026-05-03,/Volumes/nstephane/Dev/AI_Data_Science_training/immo-eliza-scraping/data/html/vbe17319.html,flat,apartment,for-rent,0,1050,,,,Avenue de la Brabançonne,,1000,Brussels,Brussels,Brussels,50.8482772,4.3851,,,0,,,,,,,,0,0,,,,,,,,,,,0,,,0,,0,,,,,,,,,,,,,From 01/08/2026,,,,,,,,,Brussels,2.48
vbe17211,https://immovlan.be/en/detail/apartment/for-rent/1000/brussels/vbe17211,ImmoVlan,2026-06-15,2026-05-02,/Volumes/nstephane/Dev/AI_Data_Science_training/immo-eliza-scraping/data/html/vbe17211.html,flat,apartment,for-rent,0,1250,,,,Place du Grand Sablon,,1000,Brussels,Brussels,Brussels,50.8416588,4.3537942,,,0,,,,,,,,0,1,,,,,1,,,,,,0,,,0,,0,,,,,,,,,,,,,From 31/07/2026,,,,,,,,,Brussels,0.62
vbe17353,https://immovlan.be/en/detail/apartment/for-rent/1000/brussels/vbe17353,ImmoVlan,2026-06-15,2026-05-03,/Volumes/nstephane/Dev/AI_Data_Science_training/immo-eliza-scraping/data/html/vbe17353.html,flat,apartment,for-rent,0,730,,,,Rue de Malines,,1000,Brussels,Brussels,Brussels,50.8540484,4.3567878,,,0,,,,,,,,0,0,,,,,,,,,,,0,,,0,,0,,,,,,,,,,,,,From 01/08/2026,,,,,,,,,Brussels,0.95
vbe17384,https://immovlan.be/en/detail/apartment/for-rent/1000/brussels/vbe17384,ImmoVlan,2026-06-15,2026-05-03,/Volumes/nstephane/Dev/AI_Data_Science_training/immo-eliza-scraping/data/html/vbe17384.html,flat,apartment,for-rent,0,1500,,,,Place Saint-Géry,,1000,Brussels,Brussels,Brussels,50.8482948,4.3473609,,,0,,,,,,,,0,1,,,,,,,,,,,0,,,1,,0,,,,,,,,,,,,,From 01/08/2026,,,,,,,,,Brussels,0.25
vbe17394,https://immovlan.be/en/detail/apartment/for-rent/1000/brussels/vbe17394,ImmoVlan,2026-06-15,2026-05-03,/Volumes/nstephane/Dev/AI_Data_Science_training/immo-eliza-scraping/data/html/vbe17394.html,flat,apartment,for-rent,0,890,,,,Rue Saint-Michel,,1000,Brussels,Brussels,Brussels,50.8523006,4.3545209,,,0,,,,,,,,0,1,,,,,,,,,,,0,,,0,,0,,,,,,,,,,,,,From 01/08/2026,,,,,,,,,Brussels,0.7
vbe17403,https://immovlan.be/en/detail/apartment/for-rent/1000/brussels/vbe17403,ImmoVlan,2026-06-15,2026-05-03,/Volumes/nstephane/Dev/AI_Data_Science_training/immo-eliza-scraping/data/html/vbe17403.html,flat,apartment,for-rent,0,1600,,,,Rue Royale,,1000,Brussels,Brussels,Brussels,50.8520143,4.3653412,,,0,,,,,,,,0,1,,,,,,,,,,,0,,,1,,0,,,,,,,,,,,,,From 01/07/2026,,,,,,,,,Brussels,1.23
vbe17391,https://immovlan.be/en/detail/apartment/for-rent/1000/brussels/vbe17391,ImmoVlan,2026-06-15,2026-05-03,/Volumes/nstephane/Dev/AI_Data_Science_training/immo-eliza-scraping/data/html/vbe17391.html,flat,apartment,for-rent,0,810,,,,Rue aux Fleurs,,1000,Brussels,Brussels,Brussels,50.8527753,4.3522809,,,0,,,,,,,,0,0,,,,,,,,,,,0,,,0,,0,,,,,,,,,,,,,From 01/08/2026,,,,,,,,,Brussels,0.7
vbe17412,https://immovlan.be/en/detail/apartment/for-rent/1000/brussels/vbe17412,ImmoVlan,2026-06-15,2026-05-03,/Volumes/nstephane/Dev/AI_Data_Science_training/immo-eliza-scraping/data/html/vbe17412.html,flat,apartment,for-rent,0,1050,,,,Avenue de la Brabançonne,,1000,Brussels,Brussels,Brussels,50.8482772,4.3851,,,0,,,,,,,,0,1,,,,,,,,,,,0,,,1,,0,,,,,,,,,,,,,From 01/08/2026,,,,,,,,,Brussels,2.48
vbe17438,https://immovlan.be/en/detail/apartment/for-rent/1000/brussels/vbe17438,ImmoVlan,2026-06-15,2026-05-03,/Volumes/nstephane/Dev/AI_Data_Science_training/immo-eliza-scraping/data/html/vbe17438.html,flat,apartment,for-rent,0,730,,,,Rue de Malines,,1000,Brussels,Brussels,Brussels,50.8540484,4.3567878,,,0,,,,,,,,0,0,,,,,,,,,,,0,,,0,,0,,,,,,,,,,,,,From 01/08/2026,,,,,,,,,Brussels,0.95
vbe17407,https://immovlan.be/en/detail/apartment/for-rent/1000/brussels/vbe17407,ImmoVlan,2026-06-15,2026-05-03,/Volumes/nstephane/Dev/AI_Data_Science_training/immo-eliza-scraping/data/html/vbe17407.html,flat,apartment,for-rent,0,1100,,,,Boulevard de la Cambre,,1000,Brussels,Brussels,Brussels,50.81593,4.37489,,,0,,,,,,,,0,1,,,,,,,,,,,0,,,0,,0,,,,,,,,,,,,,From 01/08/2026,,,,,,,,,Brussels,3.85
vbe17456,https://immovlan.be/en/detail/apartment/for-rent/1000/brussels/vbe17456,ImmoVlan,2026-06-15,2026-05-03,/Volumes/nstephane/Dev/AI_Data_Science_training/immo-eliza-scraping/data/html/vbe17456.html,flat,apartment,for-rent,0,1150,19.17,,,Rue du Vieux Marché aux Grains,18,1000,Brussels,Brussels,Brussels,50.8497814,4.3464886,1,14,60,30,,,1,,1,1920,,0,Gas,Double glass,,,,269,E,1,2,,0,,,1,,,,,,,1,0,0,,,,,,,Normal,,,,6,3,35,,Brussels,0.42
vbe17497,https://immovlan.be/en/detail/apartment/for-rent/1000/brussels/vbe17497,ImmoVlan,2026-06-15,2026-05-03,/Volumes/nstephane/Dev/AI_Data_Science_training/immo-eliza-scraping/data/html/vbe17497.html,flat,apartment,for-rent,0,910,21.67,,,Rue de la clé,11,1000,Brussels,Brussels,Brussels,50.85273,4.3431624,1,9,42,22,,,1,1,1,1950,0,0,Gas,Double glass,,,,154,D,1,2,,0,,,0,,,,,,,1,0,0,1,,,,,Immediately,New,,,,1,,90,,Brussels,0.82
vbe17682,https://immovlan.be/en/detail/apartment/for-rent/1000/brussels/vbe17682,ImmoVlan,2026-06-15,2026-05-04,/Volumes/nstephane/Dev/AI_Data_Science_training/immo-eliza-scraping/data/html/vbe17682.html,flat,apartment,for-rent,1,1675,18.61,,,Rue Joseph II,82 12,1000,Brussels,Brussels,Brussels,50.8452914,4.3752151,2,,90,,,,,1,1,2022,0,0,Electricity,,,,0,,,,,,1,,,0,,,,,,,,,0,,,,,,From 31/07/2026,New,,,,6,3,210,,Brussels,1.78
vbe17873,https://immovlan.be/en/detail/apartment/for-rent/1000/brussels/vbe17873,ImmoVlan,2026-06-15,2026-05-04,/Volumes/nstephane/Dev/AI_Data_Science_training/immo-eliza-scraping/data/html/vbe17873.html,flat,apartment,for-rent,0,1416,12.31,,,,,1000,Brussels,Brussels,Brussels,50.8427501,4.3515499,2,,115,,,,1,,,,0,,,,,,,189,D,,2,South,1,10,,1,20,,,,,,,,,,,,,,,,,,,,1,50,,Brussels,0.45
vbe18133,https://immovlan.be/en/detail/apartment/for-rent/1000/brussels/vbe18133,ImmoVlan,2026-06-15,2026-05-05,/Volumes/nstephane/Dev/AI_Data_Science_training/immo-eliza-scraping/data/html/vbe18133.html,flat,apartment,for-rent,0,2250,,,,Rue Charles Hanssens,,1000,Brussels,Brussels,Brussels,50.8394329,4.3532337,,,0,,,,,,,,0,1,,,,,,,,,,,0,,,1,,0,,,,,,,,,,,,,From 23/07/2026,,,,,,,,,Brussels,0.84
vbe19139,https://immovlan.be/en/detail/apartment/for-rent/1000/brussels/vbe19139,ImmoVlan,2026-06-15,2026-05-06,/Volumes/nstephane/Dev/AI_Data_Science_training/immo-eliza-scraping/data/html/vbe19139.html,flat,apartment,for-rent,0,1600,22.86,,,,,1000,Brussels,Brussels,Brussels,50.8427501,4.3515499,1,16,70,25,5,Super equipped,1,1,2,2017,,1,Gas,,,,0,26,A,1,2,South,0,,,1,70,,1,1,1,,1,0,1,1,,,,,,Excellent,,20,20,8,7,300,,Brussels,0.45
vbe18528,https://immovlan.be/en/detail/apartment/for-rent/1000/brussels/vbe18528,ImmoVlan,2026-06-15,2026-05-05,/Volumes/nstephane/Dev/AI_Data_Science_training/immo-eliza-scraping/data/html/vbe18528.html,flat,apartment,for-rent,0,1600,,,,,,1000,Brussels,Brussels,Brussels,50.8427501,4.3515499,2,,0,,,,1,,,,0,,,,,,,,,,2,South,0,,,0,,,,,,,,,,,,,,,,,,,,,5,,,Brussels,0.45
vbe19630,https://immovlan.be/en/detail/apartment/for-rent/1000/brussels/vbe19630,ImmoVlan,2026-06-15,2026-05-07,/Volumes/nstephane/Dev/AI_Data_Science_training/immo-eliza-scraping/data/html/vbe19630.html,flat,apartment,for-rent,0,1800,21.18,,,,,1000,Brussels,Brussels,Brussels,50.8427501,4.3515499,2,,85,,,,1,1,,,0,,Gas,,,,,,,,2,,0,,,1,8,,1,1,1,,,,,,,,,,From 07/05/2026,,,,,,5,175,,Brussels,0.45
vbe19783,https://immovlan.be/en/detail/apartment/for-rent/1000/brussels/vbe19783,ImmoVlan,2026-06-15,2026-05-08,/Volumes/nstephane/Dev/AI_Data_Science_training/immo-eliza-scraping/data/html/vbe19783.html,flat,apartment,for-rent,0,1200,,,,Rue des Eburons,,1000,Brussels,Brussels,Brussels,50.8484518,4.379499,,,0,,,,,,,,0,1,,,,,,,,,,,0,,,0,,0,,,,,,,,,,,,,From 22/06/2026,,,,,,,,,Brussels,2.09
vbe19786,https://immovlan.be/en/detail/apartment/for-rent/1000/brussels/vbe19786,ImmoVlan,2026-06-15,2026-05-08,/Volumes/nstephane/Dev/AI_Data_Science_training/immo-eliza-scraping/data/html/vbe19786.html,flat,apartment,for-rent,0,1095,,,,Rue d'Ophem,,1000,Brussels,Brussels,Brussels,50.853306,4.3450598,1,10,0,,,,,,,,0,1,,,,,,,,,,,0,,,0,,0,,,,,,,,,,,,,From 06/08/2026,,,,,,,,,Brussels,0.81
vbe17874,https://immovlan.be/en/detail/apartment/for-rent/1000/brussels/vbe17874,ImmoVlan,2026-06-15,2026-05-04,/Volumes/nstephane/Dev/AI_Data_Science_training/immo-eliza-scraping/data/html/vbe17874.html,flat,apartment,for-rent,0,1270,12.7,,,,,1000,Brussels,Brussels,Brussels,50.8427501,4.3515499,2,,100,,,,1,,,,0,,,,,,,255,E,,2,South,0,,,0,,,,,,,,,,,,,,,,,,,,,2,50,,Brussels,0.45
vbe19785,https://immovlan.be/en/detail/apartment/for-rent/1000/brussels/vbe19785,ImmoVlan,2026-06-15,2026-05-08,/Volumes/nstephane/Dev/AI_Data_Science_training/immo-eliza-scraping/data/html/vbe19785.html,flat,apartment,for-rent,0,1200,,,,Rue des Eburons,,1000,Brussels,Brussels,Brussels,50.8484518,4.379499,,,0,,,,,,,,0,1,,,,,,,,,,,0,,,0,,0,,,,,,,,,,,,,From 12/06/2026,,,,,,,,,Brussels,2.09
vbe19789,https://immovlan.be/en/detail/apartment/for-rent/1000/brussels/vbe19789,ImmoVlan,2026-06-15,2026-05-08,/Volumes/nstephane/Dev/AI_Data_Science_training/immo-eliza-scraping/data/html/vbe19789.html,flat,apartment,for-rent,0,1200,,,,Rue des Eburons,,1000,Brussels,Brussels,Brussels,50.8484518,4.379499,,,0,,,,,,,,0,1,,,,,,,,,,,0,,,0,,0,,,,,,,,,,,,,From 01/07/2026,,,,,,,,,Brussels,2.09
vbe19790,https://immovlan.be/en/detail/apartment/for-rent/1000/brussels/vbe19790,ImmoVlan,2026-06-15,2026-05-08,/Volumes/nstephane/Dev/AI_Data_Science_training/immo-eliza-scraping/data/html/vbe19790.html,flat,apartment,for-rent,0,1390,,,,Rue Camusel,,1000,Brussels,Brussels,Brussels,50.846039,4.3412515,,,0,,,,,,,,0,1,,,,,,,,,,,0,,,0,,0,,,,,,,,,,,,,From 12/06/2026,,,,,,,,,Brussels,0.61
vbe19980,https://immovlan.be/en/detail/apartment/for-rent/1000/brussels/vbe19980,ImmoVlan,2026-06-15,2026-05-08,/Volumes/nstephane/Dev/AI_Data_Science_training/immo-eliza-scraping/data/html/vbe19980.html,flat,apartment,for-rent,0,1350,15.88,,,Rue des Fabriques,69,1000,Brussels,Brussels,Brussels,50.8491967,4.3395333,2,14;9,85,30,,Super equipped,1,,1,2017,,0,Gas,Double glass,,,,91,B,1,2,,0,,,1,10,,,,1,1,1,,1,,,,,,,Excellent,,,,5,5,170,,Brussels,0.78
vbe20290,https://immovlan.be/en/detail/apartment/for-rent/1000/brussels/vbe20290,ImmoVlan,2026-06-15,2026-05-09,/Volumes/nstephane/Dev/AI_Data_Science_training/immo-eliza-scraping/data/html/vbe20290.html,flat,apartment,for-rent,0,1200,,,,Rue des Eburons,,1000,Brussels,Brussels,Brussels,50.8484518,4.379499,,,0,,,,,,,,0,1,,,,,,,,,,,0,,,0,,0,,,,,,,,,,,,,From 01/08/2026,,,,,,,,,Brussels,2.09
vbe20316,https://immovlan.be/en/detail/apartment/for-rent/1000/brussels/vbe20316,ImmoVlan,2026-06-15,2026-05-09,/Volumes/nstephane/Dev/AI_Data_Science_training/immo-eliza-scraping/data/html/vbe20316.html,flat,apartment,for-rent,0,1450,14.8,,,Rue Notre-Seigneur,11,1000,Brussels,Brussels,Brussels,50.840813,4.3494625,2,,98,48,,,1,,,,0,,Gas,,,,,114,C,,2,South,0,,,1,8,,,,,,,,,,,,,,From 07/07/2026,,,,,,2,70,,Brussels,0.66
vbe20440,https://immovlan.be/en/detail/apartment/for-rent/1000/brussels/vbe20440,ImmoVlan,2026-06-15,2026-05-10,/Volumes/nstephane/Dev/AI_Data_Science_training/immo-eliza-scraping/data/html/vbe20440.html,flat,apartment,for-rent,0,2450,15.71,,,Square Gutenberg,17,1000,Brussels,Brussels,Brussels,50.8484134,4.3772772,3,,156,,,Super equipped,1,1,2,,,0,,,,,,138,C,1,2,,,,,1,49,,,,,,,0,0,,,,,,,Excellent,,,,3,0,50,,Brussels,1.93
vbe20851,https://immovlan.be/en/detail/apartment/for-rent/1000/brussels/vbe20851,ImmoVlan,2026-06-15,2026-05-11,/Volumes/nstephane/Dev/AI_Data_Science_training/immo-eliza-scraping/data/html/vbe20851.html,flat,apartment,for-rent,0,1300,13.0,,,,,1000,Brussels,Brussels,Brussels,50.8427501,4.3515499,2,,100,45,,,1,,,,0,,Gas,,,,,143,C,,2,,0,,,0,,,,,,,,,,,,,,,,,,,,,3,,,Brussels,0.45
vbe20850,https://immovlan.be/en/detail/apartment/for-rent/1000/brussels/vbe20850,ImmoVlan,2026-06-15,2026-05-11,/Volumes/nstephane/Dev/AI_Data_Science_training/immo-eliza-scraping/data/html/vbe20850.html,flat,apartment,for-rent,0,1300,14.44,,,,,1000,Brussels,Brussels,Brussels,50.8427501,4.3515499,2,,90,40,,,1,,,,0,,Gas,,,,,194,D,,2,,0,,,1,5,,,,,,,,,,,,,,,,,,,,6,,,Brussels,0.45
vbe21558,https://immovlan.be/en/detail/apartment/for-rent/1000/brussels/vbe21558,ImmoVlan,2026-06-15,2026-05-12,/Volumes/nstephane/Dev/AI_Data_Science_training/immo-eliza-scraping/data/html/vbe21558.html,flat,apartment,for-rent,0,1300,24.07,,,Rue Saint-Michel,16,1000,Brussels,Brussels,Brussels,50.85247,4.35464,1,,54,,,,,1,1,,0,1,,,,,,232,E,0,2,,0,,,1,,,,,,,,,1,1,,,,,From 01/07/2026,Normal,,,,4,1,100,,Brussels,0.72
vbe21573,https://immovlan.be/en/detail/apartment/for-rent/1000/brussels/vbe21573,ImmoVlan,2026-06-15,2026-05-12,/Volumes/nstephane/Dev/AI_Data_Science_training/immo-eliza-scraping/data/html/vbe21573.html,flat,apartment,for-rent,0,1150,17.69,,,Boulevard Adolphe Max,45,1000,Brussels,Brussels,Brussels,50.85282,4.35502,1,,65,,,,1,,1,,0,0,Gas,,,,,,,0,2,,0,,,0,,,,,,,,,1,1,,,,,From 01/08/2026,Normal,,,,4,1,100,,Brussels,0.77
vbe21557,https://immovlan.be/en/detail/apartment/for-rent/1000/brussels/vbe21557,ImmoVlan,2026-06-15,2026-05-12,/Volumes/nstephane/Dev/AI_Data_Science_training/immo-eliza-scraping/data/html/vbe21557.html,flat,apartment,for-rent,0,1400,21.54,,,Rue Saint-Michel,16,1000,Brussels,Brussels,Brussels,50.85247,4.354638,2,,65,20,,,1,,1,1910,0,1,Gas,,,,,350,G,0,2,South-west,0,,,1,1,,,,,,,,1,1,,,,,From 06/08/2026,Normal,,,,4,4,100,,Brussels,0.72
vbe21653,https://immovlan.be/en/detail/apartment/for-rent/1000/brussels/vbe21653,ImmoVlan,2026-06-15,2026-05-12,/Volumes/nstephane/Dev/AI_Data_Science_training/immo-eliza-scraping/data/html/vbe21653.html,flat,apartment,for-rent,0,2250,19.74,,,,,1000,Brussels,Brussels,Brussels,50.8427501,4.3515499,2,11;16,114,,,Super equipped,2,2,2,,,0,Gas,Double glass,,,,169,D,1,2,,0,,,1,25,,1,1,,,1,0,1,,,,,,,Normal,,,,4,0,100,,Brussels,0.45
vbe21523,https://immovlan.be/en/detail/apartment/for-rent/1000/brussels/vbe21523,ImmoVlan,2026-06-15,2026-05-12,/Volumes/nstephane/Dev/AI_Data_Science_training/immo-eliza-scraping/data/html/vbe21523.html,flat,apartment,for-rent,0,1650,20.37,,,Saint Jean,4,1000,Brussels,Brussels,Brussels,50.8442607,4.3550895,3,,81,,,Super equipped,1,,1,,,0,,Double glass,,,,,,1,2,,0,,,1,10,,,,,,,0,1,,,,,,,Excellent,,,,5,5,150,,Brussels,0.45
vbe21559,https://immovlan.be/en/detail/apartment/for-rent/1000/brussels/vbe21559,ImmoVlan,2026-06-15,2026-05-12,/Volumes/nstephane/Dev/AI_Data_Science_training/immo-eliza-scraping/data/html/vbe21559.html,flat,apartment,for-rent,0,1100,22.0,,,Boulevard Adolphe Max,27,1000,Brussels,Brussels,Brussels,50.85257,4.35472,1,,50,,,,1,,1,,0,0,,,,,,199,D,0,2,,0,,,0,,,,,,,,,1,1,,,,,From 01/09/2026,Normal,,,,4,1,100,,Brussels,0.74
vbe21574,https://immovlan.be/en/detail/apartment/for-rent/1000/brussels/vbe21574,ImmoVlan,2026-06-15,2026-05-12,/Volumes/nstephane/Dev/AI_Data_Science_training/immo-eliza-scraping/data/html/vbe21574.html,flat,apartment,for-rent,0,1150,16.43,,,Boulevard Adolphe Max,45,1000,Brussels,Brussels,Brussels,50.8528167,4.355019,1,,70,,,,1,,1,,0,0,,,,,,,,0,2,,0,,,0,,,,,,,,,1,1,,,,,From 01/08/2026,Normal,,,,4,2,100,,Brussels,0.77
vbe22281,https://immovlan.be/en/detail/apartment/for-rent/1000/brussels/vbe22281,ImmoVlan,2026-06-15,2026-05-14,/Volumes/nstephane/Dev/AI_Data_Science_training/immo-eliza-scraping/data/html/vbe22281.html,flat,apartment,for-rent,0,1300,,,,Rue Saint-Jean,,1000,Brussels,Brussels,Brussels,50.84457,4.35433,,,0,,,,,,,,0,1,,,,,,,,,,,0,,,0,,0,,,,,,,,,,,,,From 14/06/2026,,,,,,,,,Brussels,0.39
vbe22804,https://immovlan.be/en/detail/apartment/for-rent/1000/brussels/vbe22804,ImmoVlan,2026-06-15,2026-05-15,/Volumes/nstephane/Dev/AI_Data_Science_training/immo-eliza-scraping/data/html/vbe22804.html,flat,apartment,for-rent,0,4900,23.67,,,Avenue Louise,186,1000,Brussels,Brussels,Brussels,50.8279,4.36387,3,26;17;16,207,,,,3,,1,,0,1,,Double glass,,0,0,133,C,0,2,,0,,,1,,,1,,1,,,,1,1,,,,,Immediately,Excellent,,,,9,7,330,,Brussels,2.31
vbe21720,https://immovlan.be/en/detail/apartment/for-rent/1000/brussels/vbe21720,ImmoVlan,2026-06-15,2026-05-13,/Volumes/nstephane/Dev/AI_Data_Science_training/immo-eliza-scraping/data/html/vbe21720.html,flat,apartment,for-rent,0,1380,16.24,,,de witte de haelen,28,1000,Brussels,Brussels,Brussels,50.8544508,4.3442943,2,15;10,85,45,11,,1,,1,,0,,Gas,,,,0,0,A,,,,,,,,,,,,,,1,,1,,,,,,,Excellent,,,,3,2,70,,Brussels,0.95
vbe22955,https://immovlan.be/en/detail/apartment/for-rent/1000/brussels/vbe22955,ImmoVlan,2026-06-15,2026-05-18,/Volumes/nstephane/Dev/AI_Data_Science_training/immo-eliza-scraping/data/html/vbe22955.html,flat,apartment,for-rent,0,1100,,,,Avenue de la Brabançonne,,1000,Brussels,Brussels,Brussels,50.8482772,4.3851,,,0,,,,,,,,0,1,,,,,,,,,,,0,,,0,,0,,,,,,,,,,,,,From 16/08/2026,,,,,,,,,Brussels,2.48
vbe22957,https://immovlan.be/en/detail/apartment/for-rent/1000/brussels/vbe22957,ImmoVlan,2026-06-15,2026-05-18,/Volumes/nstephane/Dev/AI_Data_Science_training/immo-eliza-scraping/data/html/vbe22957.html,flat,apartment,for-rent,0,890,,,,Rue Saint-Michel,,1000,Brussels,Brussels,Brussels,50.8523006,4.3545209,,,0,,,,,,,,0,1,,,,,,,,,,,0,,,0,,0,,,,,,,,,,,,,From 16/08/2026,,,,,,,,,Brussels,0.7
vbe22905,https://immovlan.be/en/detail/apartment/for-rent/1000/brussels/vbe22905,ImmoVlan,2026-06-15,2026-05-16,/Volumes/nstephane/Dev/AI_Data_Science_training/immo-eliza-scraping/data/html/vbe22905.html,flat,apartment,for-rent,0,2750,27.5,,,AVENUE FRANKLIN ROOSEVELT,119,1000,Brussels,Brussels,Brussels,50.7996977,4.3898798,2,20;14,100,,11,,1,,,1965,0,,Gas,Double glass,,,,122,C,1,,,0,,,1,23,,,,,,,,1,1,,,,,,Fully renovated,,,,10,8,280,,Brussels,5.93
vbe22972,https://immovlan.be/en/detail/apartment/for-rent/1000/brussels/vbe22972,ImmoVlan,2026-06-15,2026-05-18,/Volumes/nstephane/Dev/AI_Data_Science_training/immo-eliza-scraping/data/html/vbe22972.html,flat,apartment,for-rent,0,815,,,,Rue de Malines,,1000,Brussels,Brussels,Brussels,50.8540484,4.3567878,,,0,,,,,,,,0,0,,,,,,,,,,,0,,,0,,0,,,,,,,,,,,,,From 16/08/2026,,,,,,,,,Brussels,0.95
vbe22932,https://immovlan.be/en/detail/apartment/for-rent/1000/brussels/vbe22932,ImmoVlan,2026-06-15,2026-05-17,/Volumes/nstephane/Dev/AI_Data_Science_training/immo-eliza-scraping/data/html/vbe22932.html,flat,apartment,for-rent,0,850,22.37,,,Rue Sainte-Anne,40,1000,Brussels,Brussels,Brussels,50.8411909,4.3554226,,,38,13,,,1,,,,0,,Gas,,,,,337,F,,2,,0,,,0,,,,,,,,,,,,,,,From 01/07/2026,,,,,,2,60,,Brussels,0.72
vbe23292,https://immovlan.be/en/detail/apartment/for-rent/1000/brussels/vbe23292,ImmoVlan,2026-06-15,2026-05-18,/Volumes/nstephane/Dev/AI_Data_Science_training/immo-eliza-scraping/data/html/vbe23292.html,flat,apartment,for-rent,0,3250,13.83,,,avenue louise,401 5,1000,Brussels,Brussels,Brussels,50.8197751,4.3701448,3,22;16;16,235,75,20,Fully equipped,1,,1,1964,1,,Gas,Double glass,,,,331,F,,2,,0,,,1,20,,1,,,,,,1,1,,,,,,Excellent,,,,8,5,,,Brussels,3.31
vbe23293,https://immovlan.be/en/detail/apartment/for-rent/1000/brussels/vbe23293,ImmoVlan,2026-06-15,2026-05-18,/Volumes/nstephane/Dev/AI_Data_Science_training/immo-eliza-scraping/data/html/vbe23293.html,flat,apartment,for-rent,0,1400,17.5,,,Saint-Jean,,1000,Brussels,Brussels,Brussels,50.8444482,4.3545028,1,14,80,30,,Super equipped,1,1,1,,,1,Gas,,,,,,,,,,0,,,1,12,,,,,,,0,,1,,,,,,Excellent,,,,4,4,,,Brussels,0.41
vbe23745,https://immovlan.be/en/detail/apartment/for-rent/1000/brussels/vbe23745,ImmoVlan,2026-06-15,2026-05-19,/Volumes/nstephane/Dev/AI_Data_Science_training/immo-eliza-scraping/data/html/vbe23745.html,flat,apartment,for-rent,0,1200,20.0,,,Quai des Péniches,40,1000,Brussels,Brussels,Brussels,50.8623103,4.3506407,1,,60,33,,,,1,,,0,,Gas,,,,,,,,2,,0,,,1,4,,,,,,,,,,,,,,From 01/07/2026,,,,,,4,130,,Brussels,1.74
vbe23820,https://immovlan.be/en/detail/apartment/for-rent/1000/brussels/vbe23820,ImmoVlan,2026-06-15,2026-05-19,/Volumes/nstephane/Dev/AI_Data_Science_training/immo-eliza-scraping/data/html/vbe23820.html,flat,apartment,for-rent,0,2400,17.78,,,,,1000,Brussels,Brussels,Brussels,50.8427501,4.3515499,2,20;15,135,60,,,1,1,1,1930,0,,,Double glass,,0,0,190,D,1,2,,0,,,1,8,1,1,1,,,,,1,1,,,,,Immediately,Excellent,,,,6,1,300,,Brussels,0.45
vbe23545,https://immovlan.be/en/detail/apartment/for-rent/1000/brussels/vbe23545,ImmoVlan,2026-06-15,2026-05-18,/Volumes/nstephane/Dev/AI_Data_Science_training/immo-eliza-scraping/data/html/vbe23545.html,flat,apartment,for-rent,0,1800,16.98,,,,,1000,Brussels,Brussels,Brussels,50.8427501,4.3515499,2,15;10,106,37,,Super equipped,2,2,2,2014,1,0,Gas,Double glass,,,0,,,,2,,0,,,1,9,,,,,,1,0,1,1,,,,,,Normal,,,,24,21,200,,Brussels,0.45
vbe24172,https://immovlan.be/en/detail/apartment/for-rent/1000/brussels/vbe24172,ImmoVlan,2026-06-15,2026-05-19,/Volumes/nstephane/Dev/AI_Data_Science_training/immo-eliza-scraping/data/html/vbe24172.html,flat,apartment,for-rent,0,3400,12.32,,,Avenue Franklin Roosevelt,117,1000,Brussels,Brussels,Brussels,50.8003581,4.3905754,4,26;13;12;12,276,71,13,Super equipped,3,3,4,1964,,0,Gas,Double glass,,,,99,C,,2,,0,,,1,27,,1,1,1,1,1,1,1,1,,,,,Immediately,Normal,,,,10,7,550,,Brussels,5.89
vbe25024,https://immovlan.be/en/detail/apartment/for-rent/1000/brussels/vbe25024,ImmoVlan,2026-06-15,2026-05-21,/Volumes/nstephane/Dev/AI_Data_Science_training/immo-eliza-scraping/data/html/vbe25024.html,flat,apartment,for-rent,0,1150,19.83,,,Boulevard Emile Jacqmain,4,1000,Brussels,Brussels,Brussels,50.8522461,4.3529381,1,13,58,19,,Super equipped,1,,1,,0,1,Gas,Double glass,,,,107,C,,2,,0,,,0,,,,,,,1,,1,,,,,,,Excellent,,,,9,1,195,,Brussels,0.65
vbe25187,https://immovlan.be/en/detail/apartment/for-rent/1000/brussels/vbe25187,ImmoVlan,2026-06-15,2026-05-22,/Volumes/nstephane/Dev/AI_Data_Science_training/immo-eliza-scraping/data/html/vbe25187.html,flat,apartment,for-rent,0,1050,,,,Chaussée d'Anvers,,1000,Brussels,Brussels,Brussels,50.861586,4.356391,1,27,0,,,,,,,,0,0,,,,,,,,,,,1,,,0,,0,,,,,,,,,,,,,From 02/08/2026,,,,,,,,,Brussels,1.72
vbe24043,https://immovlan.be/en/detail/apartment/for-rent/1000/brussels/vbe24043,ImmoVlan,2026-06-15,2026-05-19,/Volumes/nstephane/Dev/AI_Data_Science_training/immo-eliza-scraping/data/html/vbe24043.html,flat,apartment,for-rent,0,1150,17.69,,,,,1000,Brussels,Brussels,Brussels,50.8427501,4.3515499,1,12,65,21,12,,1,1,1,1900,,0,,Double glass,,,,250,E,1,3,,0,,,1,18,,,,,,,0,0,1,,,,,Immediately,Normal,,,,2,1,15,,Brussels,0.45
vbe24073,https://immovlan.be/en/detail/apartment/for-rent/1000/brussels/vbe24073,ImmoVlan,2026-06-15,2026-05-19,/Volumes/nstephane/Dev/AI_Data_Science_training/immo-eliza-scraping/data/html/vbe24073.html,flat,apartment,for-rent,0,1650,15.71,,,Rue des Fabriques,51,1000,Brussels,Brussels,Brussels,50.8490833,4.3402037,2,15;9,105,28,9,Super equipped,2,,1,2017,,0,Gas,Double glass,,,,79,B,1,2,,0,,,1,26,,1,1,1,1,1,,1,,,,,,,Excellent,,,,5,2,160,,Brussels,0.73
vbe25190,https://immovlan.be/en/detail/apartment/for-rent/1000/brussels/vbe25190,ImmoVlan,2026-06-15,2026-05-22,/Volumes/nstephane/Dev/AI_Data_Science_training/immo-eliza-scraping/data/html/vbe25190.html,flat,apartment,for-rent,0,1100,,,,Chaussée d'Anvers,,1000,Brussels,Brussels,Brussels,50.861586,4.356391,1,36,0,,,,,,,,0,0,,,,,,,,,,,1,,,0,,0,,,,,,,,,,,,,From 14/06/2026,,,,,,,,,Brussels,1.72
vbe25192,https://immovlan.be/en/detail/apartment/for-rent/1000/brussels/vbe25192,ImmoVlan,2026-06-15,2026-05-22,/Volumes/nstephane/Dev/AI_Data_Science_training/immo-eliza-scraping/data/html/vbe25192.html,flat,apartment,for-rent,0,1000,,,,Chaussée d'Anvers,,1000,Brussels,Brussels,Brussels,50.861586,4.356391,1,25,0,,,,,,,,0,0,,,,,,,,,,,1,,,0,,0,,,,,,,,,,,,,From 14/06/2026,,,,,,,,,Brussels,1.72
vbe24702,https://immovlan.be/en/detail/apartment/for-rent/1000/brussels/vbe24702,ImmoVlan,2026-06-15,2026-05-20,/Volumes/nstephane/Dev/AI_Data_Science_training/immo-eliza-scraping/data/html/vbe24702.html,flat,apartment,for-rent,0,1100,15.71,,,Rue de la Violette,35,1000,Brussels,Brussels,Brussels,50.845105,4.3523248,1,10,70,32,,Super equipped,1,1,1,2001,,0,Gas,Double glass,,,,137,C,1,2,,0,,,0,,,1,1,1,,1,0,1,,,,,,,Excellent,,,,4,1,150,,Brussels,0.25
vbe25194,https://immovlan.be/en/detail/apartment/for-rent/1000/brussels/vbe25194,ImmoVlan,2026-06-15,2026-05-22,/Volumes/nstephane/Dev/AI_Data_Science_training/immo-eliza-scraping/data/html/vbe25194.html,flat,apartment,for-rent,0,2500,,,,Chaussée d'Anvers,,1000,Brussels,Brussels,Brussels,50.861586,4.356391,1,118,0,,,,,,,,0,0,,,,,,,,,,,1,,,0,,0,,,,,,,,,,,,,From 02/07/2026,,,,,,,,,Brussels,1.72
vbe25198,https://immovlan.be/en/detail/apartment/for-rent/1000/brussels/vbe25198,ImmoVlan,2026-06-15,2026-05-22,/Volumes/nstephane/Dev/AI_Data_Science_training/immo-eliza-scraping/data/html/vbe25198.html,flat,apartment,for-rent,0,1900,,,,Chaussée d'Anvers,,1000,Brussels,Brussels,Brussels,50.861586,4.356391,1,91,0,,,,,,,,0,0,,,,,,,,,,,1,,,1,,0,,,,,,,,,,,,,From 14/06/2026,,,,,,,,,Brussels,1.72
vbe25204,https://immovlan.be/en/detail/apartment/for-rent/1000/brussels/vbe25204,ImmoVlan,2026-06-15,2026-05-22,/Volumes/nstephane/Dev/AI_Data_Science_training/immo-eliza-scraping/data/html/vbe25204.html,flat,apartment,for-rent,0,1050,,,,Chaussée d'Anvers,,1000,Brussels,Brussels,Brussels,50.861586,4.356391,1,25,0,,,,,,,,0,0,,,,,,,,,,,1,,,0,,0,,,,,,,,,,,,,From 02/08/2026,,,,,,,,,Brussels,1.72
vbe25191,https://immovlan.be/en/detail/apartment/for-rent/1000/brussels/vbe25191,ImmoVlan,2026-06-15,2026-05-22,/Volumes/nstephane/Dev/AI_Data_Science_training/immo-eliza-scraping/data/html/vbe25191.html,flat,apartment,for-rent,0,1900,,,,Chaussée d'Anvers,,1000,Brussels,Brussels,Brussels,50.861586,4.356391,1,91,0,,,,,,,,0,0,,,,,,,,,,,1,,,0,,0,,,,,,,,,,,,,From 02/07/2026,,,,,,,,,Brussels,1.72
vbe25206,https://immovlan.be/en/detail/apartment/for-rent/1000/brussels/vbe25206,ImmoVlan,2026-06-15,2026-05-22,/Volumes/nstephane/Dev/AI_Data_Science_training/immo-eliza-scraping/data/html/vbe25206.html,flat,apartment,for-rent,0,1500,,,,Chaussée d'Anvers,,1000,Brussels,Brussels,Brussels,50.861586,4.356391,1,70,0,,,,,,,,0,0,,,,,,,,,,,1,,,0,,0,,,,,,,,,,,,,From 14/06/2026,,,,,,,,,Brussels,1.72
vbe25210,https://immovlan.be/en/detail/apartment/for-rent/1000/brussels/vbe25210,ImmoVlan,2026-06-15,2026-05-22,/Volumes/nstephane/Dev/AI_Data_Science_training/immo-eliza-scraping/data/html/vbe25210.html,flat,apartment,for-rent,0,2000,,,,Chaussée d'Anvers,,1000,Brussels,Brussels,Brussels,50.861586,4.356391,1,91,0,,,,,,,,0,0,,,,,,,,,,,1,,,0,,0,,,,,,,,,,,,,From 02/07/2026,,,,,,,,,Brussels,1.72
vbe25196,https://immovlan.be/en/detail/apartment/for-rent/1000/brussels/vbe25196,ImmoVlan,2026-06-15,2026-05-22,/Volumes/nstephane/Dev/AI_Data_Science_training/immo-eliza-scraping/data/html/vbe25196.html,flat,apartment,for-rent,0,1300,,,,Chaussée d'Anvers,,1000,Brussels,Brussels,Brussels,50.861586,4.356391,1,48,0,,,,,,,,0,0,,,,,,,,,,,1,,,0,,0,,,,,,,,,,,,,From 02/08/2026,,,,,,,,,Brussels,1.72
vbe25214,https://immovlan.be/en/detail/apartment/for-rent/1000/brussels/vbe25214,ImmoVlan,2026-06-15,2026-05-22,/Volumes/nstephane/Dev/AI_Data_Science_training/immo-eliza-scraping/data/html/vbe25214.html,flat,apartment,for-rent,0,1400,,,,Chaussée d'Anvers,,1000,Brussels,Brussels,Brussels,50.861586,4.356391,1,58,0,,,,,,,,0,0,,,,,,,,,,,1,,,0,,0,,,,,,,,,,,,,From 02/07/2026,,,,,,,,,Brussels,1.72
vbe25226,https://immovlan.be/en/detail/apartment/for-rent/1000/brussels/vbe25226,ImmoVlan,2026-06-15,2026-05-22,/Volumes/nstephane/Dev/AI_Data_Science_training/immo-eliza-scraping/data/html/vbe25226.html,flat,apartment,for-rent,0,1000,,,,Chaussée d'Anvers,,1000,Brussels,Brussels,Brussels,50.861586,4.356391,1,24,0,,,,,,,,0,0,,,,,,,,,,,1,,,0,,0,,,,,,,,,,,,,From 03/07/2026,,,,,,,,,Brussels,1.72
vbe25215,https://immovlan.be/en/detail/apartment/for-rent/1000/brussels/vbe25215,ImmoVlan,2026-06-15,2026-05-22,/Volumes/nstephane/Dev/AI_Data_Science_training/immo-eliza-scraping/data/html/vbe25215.html,flat,apartment,for-rent,0,1400,,,,Chaussée d'Anvers,,1000,Brussels,Brussels,Brussels,50.861586,4.356391,1,48,0,,,,,,,,0,0,,,,,,,,,,,1,,,0,,0,,,,,,,,,,,,,From 02/07/2026,,,,,,,,,Brussels,1.72
vbe25231,https://immovlan.be/en/detail/apartment/for-rent/1000/brussels/vbe25231,ImmoVlan,2026-06-15,2026-05-22,/Volumes/nstephane/Dev/AI_Data_Science_training/immo-eliza-scraping/data/html/vbe25231.html,flat,apartment,for-rent,0,2000,,,,Chaussée d'Anvers,,1000,Brussels,Brussels,Brussels,50.861586,4.356391,1,91,0,,,,,,,,0,0,,,,,,,,,,,1,,,0,,0,,,,,,,,,,,,,From 02/08/2026,,,,,,,,,Brussels,1.72
vbe25730,https://immovlan.be/en/detail/apartment/for-rent/1000/brussels/vbe25730,ImmoVlan,2026-06-15,2026-05-22,/Volumes/nstephane/Dev/AI_Data_Science_training/immo-eliza-scraping/data/html/vbe25730.html,flat,apartment,for-rent,0,1550,18.9,,,rue de la révolution,12,1000,Brussels,Brussels,Brussels,50.851055,4.3665006,2,14;10,82,25,,Super equipped,1,1,1,1960,,0,,Double glass,,,0,315,F,1,2,South-east,0,,,0,,,1,1,,,0,0,1,1,,,,,Immediately,Normal,,,8,7,6,300,,Brussels,1.26
vbe25217,https://immovlan.be/en/detail/apartment/for-rent/1000/brussels/vbe25217,ImmoVlan,2026-06-15,2026-05-22,/Volumes/nstephane/Dev/AI_Data_Science_training/immo-eliza-scraping/data/html/vbe25217.html,flat,apartment,for-rent,0,1150,,,,Chaussée d'Anvers,,1000,Brussels,Brussels,Brussels,50.861586,4.356391,1,36,0,,,,,,,,0,0,,,,,,,,,,,1,,,0,,0,,,,,,,,,,,,,From 02/07/2026,,,,,,,,,Brussels,1.72
vbe25223,https://immovlan.be/en/detail/apartment/for-rent/1000/brussels/vbe25223,ImmoVlan,2026-06-15,2026-05-22,/Volumes/nstephane/Dev/AI_Data_Science_training/immo-eliza-scraping/data/html/vbe25223.html,flat,apartment,for-rent,0,1300,,,,Chaussée d'Anvers,,1000,Brussels,Brussels,Brussels,50.861586,4.356391,1,48,0,,,,,,,,0,0,,,,,,,,,,,1,,,0,,0,,,,,,,,,,,,,From 02/08/2026,,,,,,,,,Brussels,1.72
vbe25903,https://immovlan.be/en/detail/apartment/for-rent/1000/brussels/vbe25903,ImmoVlan,2026-06-15,2026-05-23,/Volumes/nstephane/Dev/AI_Data_Science_training/immo-eliza-scraping/data/html/vbe25903.html,flat,apartment,for-rent,0,1350,21.77,,,Arduinkaai,16 14,1000,Brussels,Brussels,Brussels,50.8552227,4.3505554,1,,62,,,,,1,1,,0,1,Gas,,,,,118,C,0,,West,0,,,1,12,,,,,,,,1,,,,,,Immediately,Normal,,,,,2,180,,Brussels,0.95
vbe26232,https://immovlan.be/en/detail/apartment/for-rent/1000/brussels/vbe26232,ImmoVlan,2026-06-15,2026-05-26,/Volumes/nstephane/Dev/AI_Data_Science_training/immo-eliza-scraping/data/html/vbe26232.html,flat,apartment,for-rent,0,2000,13.99,,,,,1000,Brussels,Brussels,Brussels,50.8427501,4.3515499,2,16;10,143,38,9,Super equipped,1,,2,1959,,0,Gas,Double glass,,,0,193,D,1,2,East,0,,,1,5,,,,,,1,0,1,1,,,,,Immediately,Excellent,,,16,11,9,350,,Brussels,0.45
vbe26473,https://immovlan.be/en/detail/apartment/for-rent/1000/brussels/vbe26473,ImmoVlan,2026-06-15,2026-05-26,/Volumes/nstephane/Dev/AI_Data_Science_training/immo-eliza-scraping/data/html/vbe26473.html,flat,apartment,for-rent,0,1600,16.84,,,Saint Jean,4,1000,Brussels,Brussels,Brussels,50.8442607,4.3550895,2,,95,,,Super equipped,1,,1,,,0,,,,,,65,B,1,2,,0,,,0,,,,,,,,0,1,,,,,,,Excellent,,,,5,3,160,,Brussels,0.45
vbe26593,https://immovlan.be/en/detail/apartment/for-rent/1000/brussels/vbe26593,ImmoVlan,2026-06-15,2026-05-26,/Volumes/nstephane/Dev/AI_Data_Science_training/immo-eliza-scraping/data/html/vbe26593.html,flat,apartment,for-rent,0,1650,15.87,,,Rue Léon Lepage,19,1000,Brussels,Brussels,Brussels,50.8517903,4.3452691,2,,104,,,,1,,,1931,,,Gas,Double glass,,,,125,C,0,,West,0,,,0,,,,,,,0,,1,,,,,,Negotiable,Normal,,,,5,3,,,Brussels,0.65
vbe26696,https://immovlan.be/en/detail/apartment/for-rent/1000/brussels/vbe26696,ImmoVlan,2026-06-15,2026-05-27,/Volumes/nstephane/Dev/AI_Data_Science_training/immo-eliza-scraping/data/html/vbe26696.html,flat,apartment,for-rent,0,1700,19.1,,,,,1000,Brussels,Brussels,Brussels,50.8427501,4.3515499,2,10;13,89,37,,Super equipped,2,2,2,2015,1,1,Gas,Double glass,,,0,61,B,1,2,,0,,,1,12,,,,,,,0,1,1,,,,,,Excellent,,,,10,8,200,,Brussels,0.45
vbe26716,https://immovlan.be/en/detail/apartment/for-rent/1000/brussels/vbe26716,ImmoVlan,2026-06-15,2026-05-27,/Volumes/nstephane/Dev/AI_Data_Science_training/immo-eliza-scraping/data/html/vbe26716.html,flat,apartment,for-rent,0,1850,16.23,,,Rue de l'Ecuyer,32 4,1000,Brussels,Brussels,Brussels,50.8490306,4.354599,2,15;12,114,,,Super equipped,1,1,1,1750,,1,Gas,,,,,233,E,1,2,,0,,,1,3,,,,,,,0,1,,,,,,,Normal,,,,4,3,150,,Brussels,0.42
vbe26744,https://immovlan.be/en/detail/apartment/for-rent/1000/brussels/vbe26744,ImmoVlan,2026-06-15,2026-05-27,/Volumes/nstephane/Dev/AI_Data_Science_training/immo-eliza-scraping/data/html/vbe26744.html,flat,apartment,for-rent,0,2200,27.5,,,Rue Ernest Allard,41,1000,Brussels,Brussels,Brussels,50.8393145,4.3534003,2,12;11,80,27,17,Fully equipped,1,1,1,1889,,0,Electricity,Double glass,,,0,202,D,1,2,East,0,,,1,,,,,,,,0,0,1,,,,,,Excellent,,,6,3,1,40,,Brussels,0.86
vbe26800,https://immovlan.be/en/detail/apartment/for-rent/1000/brussels/vbe26800,ImmoVlan,2026-06-15,2026-05-27,/Volumes/nstephane/Dev/AI_Data_Science_training/immo-eliza-scraping/data/html/vbe26800.html,flat,apartment,for-rent,0,1300,14.44,,,Rue de Flandre,4,1000,Brussels,Brussels,Brussels,50.8505774,4.3469455,1,20,90,30,,Fully equipped,1,1,2,,,0,Gas,Double glass,,,,612,G,1,2,,0,,,1,18,,,,,,,0,0,,,,,,,Normal,,,,4,3,52,,Brussels,0.48
vbe26743,https://immovlan.be/en/detail/apartment/for-rent/1000/brussels/vbe26743,ImmoVlan,2026-06-15,2026-05-27,/Volumes/nstephane/Dev/AI_Data_Science_training/immo-eliza-scraping/data/html/vbe26743.html,flat,apartment,for-rent,0,1350,30.0,,,Rue Ernest Allard,41,1000,Brussels,Brussels,Brussels,50.8393145,4.3534003,1,10,45,22,15,,1,1,1,1889,,0,Electricity,Double glass,,,1,202,D,1,2,East,0,,,1,,,,,,,1,0,0,1,,,,,,Fully renovated,,,6,3,1,40,,Brussels,0.86
vbe27050,https://immovlan.be/en/detail/apartment/for-rent/1000/brussels/vbe27050,ImmoVlan,2026-06-15,2026-05-27,/Volumes/nstephane/Dev/AI_Data_Science_training/immo-eliza-scraping/data/html/vbe27050.html,flat,apartment,for-rent,0,1420,14.95,,,,,1000,Brussels,Brussels,Brussels,50.8427501,4.3515499,1,,95,,,Super equipped,1,1,1,1930,1,0,Gas,Double glass,,,0,212,E,1,2,,1,149,,1,,,,,,,1,0,0,1,,,,,Immediately,Excellent,,,6,3,0,125,,Brussels,0.45
vbe27073,https://immovlan.be/en/detail/apartment/for-rent/1000/brussels/vbe27073,ImmoVlan,2026-06-15,2026-05-27,/Volumes/nstephane/Dev/AI_Data_Science_training/immo-eliza-scraping/data/html/vbe27073.html,flat,apartment,for-rent,0,1590,20.92,,,Rue du Poinçon,51,1000,Brussels,Brussels,Brussels,50.8420969,4.3481248,2,11;9,76,30,,Super equipped,1,,2,,0,1,Gas,Double glass,,,0,284,F,1,2,,0,,,0,,,,,1,,1,0,1,0,,,,,,Normal,,,,5,1,188,,Brussels,0.53
vbe27207,https://immovlan.be/en/detail/apartment/for-rent/1000/brussels/vbe27207,ImmoVlan,2026-06-15,2026-05-27,/Volumes/nstephane/Dev/AI_Data_Science_training/immo-eliza-scraping/data/html/vbe27207.html,flat,apartment,for-rent,0,1800,17.48,,,,,1000,Brussels,Brussels,Brussels,50.8427501,4.3515499,2,14;14,103,38,,,1,1,2,2015,0,,,Double glass,,0,0,72,B,0,,,0,,,1,15,,,,,,,,1,1,,,,,From 14/06/2026,Excellent,,,,4,2,175,,Brussels,0.45
vbe27220,https://immovlan.be/en/detail/apartment/for-rent/1000/brussels/vbe27220,ImmoVlan,2026-06-15,2026-05-28,/Volumes/nstephane/Dev/AI_Data_Science_training/immo-eliza-scraping/data/html/vbe27220.html,flat,apartment,for-rent,0,1450,,,,Chaussée d'Anvers,,1000,Brussels,Brussels,Brussels,50.861586,4.356391,1,58,0,,,,,,,,0,0,,,,,,,,,,,1,,,0,,0,,,,,,,,,,,,,From 02/07/2026,,,,,,,,,Brussels,1.72
vbe27347,https://immovlan.be/en/detail/apartment/for-rent/1000/brussels/vbe27347,ImmoVlan,2026-06-15,2026-05-28,/Volumes/nstephane/Dev/AI_Data_Science_training/immo-eliza-scraping/data/html/vbe27347.html,flat,apartment,for-rent,0,1200,14.63,,,Helihavenlaan 50 A4.,1,1000,Brussels,Brussels,Brussels,50.8636022,4.3548585,2,,82,,,,1,,2,,0,0,,,,,,56,B,0,,,0,,,1,3,,1,,,,,,0,,,,,,From 01/09/2026,Normal,,,,,4,200,,Brussels,1.91
vbe26642,https://immovlan.be/en/detail/apartment/for-rent/1000/brussels/vbe26642,ImmoVlan,2026-06-15,2026-05-26,/Volumes/nstephane/Dev/AI_Data_Science_training/immo-eliza-scraping/data/html/vbe26642.html,flat,apartment,for-rent,0,1110,18.5,,,Rue Stevin,100,1000,Brussels,Brussels,Brussels,50.84502,4.380369,1,,60,42,,,1,,,1895,0,1,Gas,,,,,343,F,0,2,North-west,0,,,0,,,,,,,,,0,,,,,,From 01/08/2026,,,,,3,3,100,,Brussels,2.15
vbe27381,https://immovlan.be/en/detail/apartment/for-rent/1000/brussels/vbe27381,ImmoVlan,2026-06-15,2026-05-28,/Volumes/nstephane/Dev/AI_Data_Science_training/immo-eliza-scraping/data/html/vbe27381.html,flat,apartment,for-rent,0,2250,19.74,,,Rue de l'Association,30,1000,Brussels,Brussels,Brussels,50.85127,4.366062,2,,114,,,,2,,1,1878,0,0,,,,,,169,D,1,2,East,0,,,1,15,,,,,,,,1,1,,,,,From 01/08/2026,Normal,,,,3,,100,,Brussels,1.24
vbe27383,https://immovlan.be/en/detail/apartment/for-rent/1000/brussels/vbe27383,ImmoVlan,2026-06-15,2026-05-28,/Volumes/nstephane/Dev/AI_Data_Science_training/immo-eliza-scraping/data/html/vbe27383.html,flat,apartment,for-rent,0,1300,23.21,,,Rue Saint-Michel,16,1000,Brussels,Brussels,Brussels,50.85247,4.35464,1,,56,25,,,1,,1,,0,1,,,,,,232,E,1,2,North-east,0,,,1,2,,,,,,,,1,1,,,,,From 01/07/2026,Normal,,,,5,2,100,,Brussels,0.72
vbe27101,https://immovlan.be/en/detail/apartment/for-rent/1000/brussels/vbe27101,ImmoVlan,2026-06-15,2026-05-27,/Volumes/nstephane/Dev/AI_Data_Science_training/immo-eliza-scraping/data/html/vbe27101.html,flat,apartment,for-rent,0,1690,19.43,,,Rue Joseph II,21,1000,Brussels,Brussels,Brussels,50.8459379,4.3709272,2,12;14,87,,,Super equipped,1,,1,2022,,1,Gas,,,,,124,C,1,2,,0,,,1,,,,,,,,0,1,,,,,,Immediately,Normal,,,,6,5,247,,Brussels,1.48
vbe27502,https://immovlan.be/en/detail/apartment/for-rent/1000/brussels/vbe27502,ImmoVlan,2026-06-15,2026-05-28,/Volumes/nstephane/Dev/AI_Data_Science_training/immo-eliza-scraping/data/html/vbe27502.html,flat,apartment,for-rent,0,1350,18.0,,,rue antoine dansaert,142,1000,Brussels,Brussels,Brussels,50.8522335,4.3431374,2,,75,,,,1,,,,,0,Gas,,,,,298,F,0,2,,,,,1,,,,,,,,0,0,,,,,,,Normal,,,,4,3,,,Brussels,0.78
vbe27629,https://immovlan.be/en/detail/apartment/for-rent/1000/brussels/vbe27629,ImmoVlan,2026-06-15,2026-05-28,/Volumes/nstephane/Dev/AI_Data_Science_training/immo-eliza-scraping/data/html/vbe27629.html,flat,apartment,for-rent,0,1760,19.56,,,Rue Stevin,46,1000,Brussels,Brussels,Brussels,50.84568,4.377168,1,,90,,,,1,,,1910,0,1,Gas,,,,,163,D,0,2,,0,,,1,18,,,,,,,,0,,,,,,,Normal,,,,3,3,50,,Brussels,1.92
vbe27965,https://immovlan.be/en/detail/apartment/for-rent/1000/brussels/vbe27965,ImmoVlan,2026-06-15,2026-05-29,/Volumes/nstephane/Dev/AI_Data_Science_training/immo-eliza-scraping/data/html/vbe27965.html,flat,apartment,for-rent,0,1500,20.83,,,Rue General Leman,17,1000,Brussels,Brussels,Brussels,50.8365737,4.3826117,2,11;15,72,27,,Super equipped,2,1,2,,,0,Gas,Double glass,,,0,217,E,1,2,North,0,,,1,,,,,,,1,0,1,1,,,,,,Fully renovated,,,7,4,3,100,,Brussels,2.56
vbe28402,https://immovlan.be/en/detail/apartment/for-rent/1000/brussels/vbe28402,ImmoVlan,2026-06-15,2026-05-30,/Volumes/nstephane/Dev/AI_Data_Science_training/immo-eliza-scraping/data/html/vbe28402.html,flat,apartment,for-rent,0,3500,23.33,,,,,1000,Brussels,Brussels,Brussels,50.8427501,4.3515499,3,17;13;10,150,44,,Super equipped,2,2,2,2015,1,1,,Double glass,,,0,84,B,1,3,,0,,,1,80,,1,,1,,,0,1,1,,,,,,,,,,7,7,305,,Brussels,0.45
